{"type":"FeatureCollection","features":[{"type":"Feature","geometry":{"type":"Point","coordinates":[-84.428067,33.636719]},"properties":{"name":"Hartsfield Jackson Atlanta Intl","city":"Atlanta","country":"United States","iata_code":"ATL","links_count":1826,"objectID":"3682"}},{"type":"Feature","geometry":{"type":"Point","coordinates":[-87.904842,41.978603]},"properties":{"name":"Chicago Ohare Intl","city":"Chicago","country":"United States","iata_code":"ORD","links_count":1108,"objectID":"3830"}},{"type":"Feature","geometry":{"type":"Point","coordinates":[116.584556,40.080111]},"properties":{"name":"Capital Intl","city":"Beijing","country":"China","iata_code":"PEK","links_count":1069,"objectID":"3364"}},{"type":"Feature","geometry":{"type":"Point","coordinates":[-0.461389,51.4775]},"properties":{"name":"Heathrow","city":"London","country":"United Kingdom","iata_code":"LHR","links_count":1051,"objectID":"507"}},{"type":"Feature","geometry":{"type":"Point","coordinates":[2.55,49.012779]},"properties":{"name":"Charles De Gaulle","city":"Paris","country":"France","iata_code":"CDG","links_count":1041,"objectID":"1382"}},{"type":"Feature","geometry":{"type":"Point","coordinates":[-118.408075,33.942536]},"properties":{"name":"Los Angeles Intl","city":"Los Angeles","country":"United States","iata_code":"LAX","links_count":990,"objectID":"3484"}},{"type":"Feature","geometry":{"type":"Point","coordinates":[8.543125,50.026421]},"properties":{"name":"Frankfurt Main","city":"Frankfurt","country":"Germany","iata_code":"FRA","links_count":990,"objectID":"340"}},{"type":"Feature","geometry":{"type":"Point","coordinates":[-97.037997,32.896828]},"properties":{"name":"Dallas Fort Worth Intl","city":"Dallas-Fort Worth","country":"United States","iata_code":"DFW","links_count":936,"objectID":"3670"}},{"type":"Feature","geometry":{"type":"Point","coordinates":[-73.778925,40.639751]},"properties":{"name":"John F Kennedy Intl","city":"New York","country":"United States","iata_code":"JFK","links_count":911,"objectID":"3797"}},{"type":"Feature","geometry":{"type":"Point","coordinates":[4.763889,52.308613]},"properties":{"name":"Schiphol","city":"Amsterdam","country":"Netherlands","iata_code":"AMS","links_count":903,"objectID":"580"}},{"type":"Feature","geometry":{"type":"Point","coordinates":[121.805214,31.143378]},"properties":{"name":"Pudong","city":"Shanghai","country":"China","iata_code":"PVG","links_count":825,"objectID":"3406"}},{"type":"Feature","geometry":{"type":"Point","coordinates":[103.994433,1.350189]},"properties":{"name":"Changi Intl","city":"Singapore","country":"Singapore","iata_code":"SIN","links_count":820,"objectID":"3316"}},{"type":"Feature","geometry":{"type":"Point","coordinates":[2.078464,41.297078]},"properties":{"name":"Barcelona","city":"Barcelona","country":"Spain","iata_code":"BCN","links_count":783,"objectID":"1218"}},{"type":"Feature","geometry":{"type":"Point","coordinates":[126.450517,37.469075]},"properties":{"name":"Incheon Intl","city":"Seoul","country":"South Korea","iata_code":"ICN","links_count":740,"objectID":"3930"}},{"type":"Feature","geometry":{"type":"Point","coordinates":[-104.673178,39.861656]},"properties":{"name":"Denver Intl","city":"Denver","country":"United States","iata_code":"DEN","links_count":735,"objectID":"3751"}},{"type":"Feature","geometry":{"type":"Point","coordinates":[-80.290556,25.79325]},"properties":{"name":"Miami Intl","city":"Miami","country":"United States","iata_code":"MIA","links_count":734,"objectID":"3576"}},{"type":"Feature","geometry":{"type":"Point","coordinates":[11.786086,48.353783]},"properties":{"name":"Franz Josef Strauss","city":"Munich","country":"Germany","iata_code":"MUC","links_count":728,"objectID":"346"}},{"type":"Feature","geometry":{"type":"Point","coordinates":[28.814606,40.976922]},"properties":{"name":"Ataturk","city":"Istanbul","country":"Turkey","iata_code":"IST","links_count":719,"objectID":"1701"}},{"type":"Feature","geometry":{"type":"Point","coordinates":[113.914603,22.308919]},"properties":{"name":"Hong Kong Intl","city":"Hong Kong","country":"Hong Kong","iata_code":"HKG","links_count":710,"objectID":"3077"}},{"type":"Feature","geometry":{"type":"Point","coordinates":[55.364444,25.252778]},"properties":{"name":"Dubai Intl","city":"Dubai","country":"United Arab Emirates","iata_code":"DXB","links_count":710,"objectID":"2188"}},{"type":"Feature","geometry":{"type":"Point","coordinates":[-0.190278,51.148056]},"properties":{"name":"Gatwick","city":"London","country":"United Kingdom","iata_code":"LGW","links_count":708,"objectID":"502"}},{"type":"Feature","geometry":{"type":"Point","coordinates":[113.298786,23.392436]},"properties":{"name":"Baiyun Intl","city":"Guangzhou","country":"China","iata_code":"CAN","links_count":674,"objectID":"3370"}},{"type":"Feature","geometry":{"type":"Point","coordinates":[12.250797,41.804475]},"properties":{"name":"Fiumicino","city":"Rome","country":"Italy","iata_code":"FCO","links_count":662,"objectID":"1555"}},{"type":"Feature","geometry":{"type":"Point","coordinates":[-3.566764,40.493556]},"properties":{"name":"Barajas","city":"Madrid","country":"Spain","iata_code":"MAD","links_count":661,"objectID":"1229"}},{"type":"Feature","geometry":{"type":"Point","coordinates":[100.747283,13.681108]},"properties":{"name":"Suvarnabhumi Intl","city":"Bangkok","country":"Thailand","iata_code":"BKK","links_count":656,"objectID":"3885"}},{"type":"Feature","geometry":{"type":"Point","coordinates":[37.906111,55.408611]},"properties":{"name":"Domododevo","city":"Moscow","country":"Russia","iata_code":"DME","links_count":649,"objectID":"4029"}},{"type":"Feature","geometry":{"type":"Point","coordinates":[103.947086,30.578528]},"properties":{"name":"Shuangliu","city":"Chengdu","country":"China","iata_code":"CTU","links_count":647,"objectID":"3395"}},{"type":"Feature","geometry":{"type":"Point","coordinates":[-79.630556,43.677223]},"properties":{"name":"Lester B Pearson Intl","city":"Toronto","country":"Canada","iata_code":"YYZ","links_count":636,"objectID":"193"}},{"type":"Feature","geometry":{"type":"Point","coordinates":[4.484444,50.901389]},"properties":{"name":"Brussels Natl","city":"Brussels","country":"Belgium","iata_code":"BRU","links_count":631,"objectID":"302"}},{"type":"Feature","geometry":{"type":"Point","coordinates":[-2.27495,53.353744]},"properties":{"name":"Manchester","city":"Manchester","country":"United Kingdom","iata_code":"MAN","links_count":627,"objectID":"478"}},{"type":"Feature","geometry":{"type":"Point","coordinates":[16.569722,48.110278]},"properties":{"name":"Schwechat","city":"Vienna","country":"Austria","iata_code":"VIE","links_count":616,"objectID":"1613"}},{"type":"Feature","geometry":{"type":"Point","coordinates":[-80.943139,35.214]},"properties":{"name":"Charlotte Douglas Intl","city":"Charlotte","country":"United States","iata_code":"CLT","links_count":600,"objectID":"3876"}},{"type":"Feature","geometry":{"type":"Point","coordinates":[-75.241139,39.871944]},"properties":{"name":"Philadelphia Intl","city":"Philadelphia","country":"United States","iata_code":"PHL","links_count":576,"objectID":"3752"}},{"type":"Feature","geometry":{"type":"Point","coordinates":[140.386389,35.764722]},"properties":{"name":"Narita Intl","city":"Tokyo","country":"Japan","iata_code":"NRT","links_count":575,"objectID":"2279"}},{"type":"Feature","geometry":{"type":"Point","coordinates":[6.766775,51.289453]},"properties":{"name":"Dusseldorf","city":"Duesseldorf","country":"Germany","iata_code":"DUS","links_count":570,"objectID":"345"}},{"type":"Feature","geometry":{"type":"Point","coordinates":[108.751592,34.447119]},"properties":{"name":"Xianyang","city":"Xi'an","country":"China","iata_code":"XIY","links_count":563,"objectID":"3379"}},{"type":"Feature","geometry":{"type":"Point","coordinates":[2.727778,39.55361]},"properties":{"name":"Son Sant Joan","city":"Palma de Mallorca","country":"Spain","iata_code":"PMI","links_count":548,"objectID":"3998"}},{"type":"Feature","geometry":{"type":"Point","coordinates":[102.743536,24.992364]},"properties":{"name":"Wujiaba","city":"Kunming","country":"China","iata_code":"KMG","links_count":545,"objectID":"3382"}},{"type":"Feature","geometry":{"type":"Point","coordinates":[106.641678,29.719217]},"properties":{"name":"Jiangbei","city":"Chongqing","country":"China","iata_code":"CKG","links_count":540,"objectID":"3393"}},{"type":"Feature","geometry":{"type":"Point","coordinates":[77.103088,28.5665]},"properties":{"name":"Indira Gandhi Intl","city":"Delhi","country":"India","iata_code":"DEL","links_count":527,"objectID":"3093"}},{"type":"Feature","geometry":{"type":"Point","coordinates":[121.232822,25.077731]},"properties":{"name":"Taoyuan Intl","city":"Taipei","country":"Taiwan","iata_code":"TPE","links_count":527,"objectID":"2276"}},{"type":"Feature","geometry":{"type":"Point","coordinates":[101.709917,2.745578]},"properties":{"name":"Kuala Lumpur Intl","city":"Kuala Lumpur","country":"Malaysia","iata_code":"KUL","links_count":514,"objectID":"3304"}},{"type":"Feature","geometry":{"type":"Point","coordinates":[-112.011583,33.434278]},"properties":{"name":"Phoenix Sky Harbor Intl","city":"Phoenix","country":"United States","iata_code":"PHX","links_count":508,"objectID":"3462"}},{"type":"Feature","geometry":{"type":"Point","coordinates":[120.434453,30.229503]},"properties":{"name":"Xiaoshan","city":"Hangzhou","country":"China","iata_code":"HGH","links_count":506,"objectID":"3386"}},{"type":"Feature","geometry":{"type":"Point","coordinates":[-74.168667,40.6925]},"properties":{"name":"Newark Liberty Intl","city":"Newark","country":"United States","iata_code":"EWR","links_count":505,"objectID":"3494"}},{"type":"Feature","geometry":{"type":"Point","coordinates":[-122.374889,37.618972]},"properties":{"name":"San Francisco Intl","city":"San Francisco","country":"United States","iata_code":"SFO","links_count":499,"objectID":"3469"}},{"type":"Feature","geometry":{"type":"Point","coordinates":[-115.15225,36.080056]},"properties":{"name":"Mc Carran Intl","city":"Las Vegas","country":"United States","iata_code":"LAS","links_count":498,"objectID":"3877"}},{"type":"Feature","geometry":{"type":"Point","coordinates":[8.549167,47.464722]},"properties":{"name":"Zurich","city":"Zurich","country":"Switzerland","iata_code":"ZRH","links_count":494,"objectID":"1678"}},{"type":"Feature","geometry":{"type":"Point","coordinates":[-95.341442,29.984433]},"properties":{"name":"George Bush Intercontinental","city":"Houston","country":"United States","iata_code":"IAH","links_count":485,"objectID":"3550"}},{"type":"Feature","geometry":{"type":"Point","coordinates":[-99.072097,19.436303]},"properties":{"name":"Licenciado Benito Juarez Intl","city":"Mexico City","country":"Mexico","iata_code":"MEX","links_count":485,"objectID":"1824"}},{"type":"Feature","geometry":{"type":"Point","coordinates":[54.651138,24.432972]},"properties":{"name":"Abu Dhabi Intl","city":"Abu Dhabi","country":"United Arab Emirates","iata_code":"AUH","links_count":477,"objectID":"2179"}},{"type":"Feature","geometry":{"type":"Point","coordinates":[-81.308994,28.429394]},"properties":{"name":"Orlando Intl","city":"Orlando","country":"United States","iata_code":"MCO","links_count":475,"objectID":"3878"}},{"type":"Feature","geometry":{"type":"Point","coordinates":[113.810664,22.639258]},"properties":{"name":"Baoan Intl","city":"Shenzhen","country":"China","iata_code":"SZX","links_count":467,"objectID":"3374"}},{"type":"Feature","geometry":{"type":"Point","coordinates":[118.127739,24.544036]},"properties":{"name":"Gaoqi","city":"Xiamen","country":"China","iata_code":"XMN","links_count":466,"objectID":"3383"}},{"type":"Feature","geometry":{"type":"Point","coordinates":[12.655972,55.617917]},"properties":{"name":"Kastrup","city":"Copenhagen","country":"Denmark","iata_code":"CPH","links_count":457,"objectID":"609"}},{"type":"Feature","geometry":{"type":"Point","coordinates":[72.867919,19.088686]},"properties":{"name":"Chhatrapati Shivaji Intl","city":"Mumbai","country":"India","iata_code":"BOM","links_count":452,"objectID":"2997"}},{"type":"Feature","geometry":{"type":"Point","coordinates":[17.918611,59.651944]},"properties":{"name":"Arlanda","city":"Stockholm","country":"Sweden","iata_code":"ARN","links_count":439,"objectID":"737"}},{"type":"Feature","geometry":{"type":"Point","coordinates":[-9.135919,38.781311]},"properties":{"name":"Lisboa","city":"Lisbon","country":"Portugal","iata_code":"LIS","links_count":435,"objectID":"1638"}},{"type":"Feature","geometry":{"type":"Point","coordinates":[-83.353389,42.212444]},"properties":{"name":"Detroit Metro Wayne Co","city":"Detroit","country":"United States","iata_code":"DTW","links_count":433,"objectID":"3645"}},{"type":"Feature","geometry":{"type":"Point","coordinates":[-93.221767,44.881956]},"properties":{"name":"Minneapolis St Paul Intl","city":"Minneapolis","country":"United States","iata_code":"MSP","links_count":430,"objectID":"3858"}},{"type":"Feature","geometry":{"type":"Point","coordinates":[-71.005181,42.364347]},"properties":{"name":"General Edward Lawrence Logan Intl","city":"Boston","country":"United States","iata_code":"BOS","links_count":424,"objectID":"3448"}},{"type":"Feature","geometry":{"type":"Point","coordinates":[13.287711,52.559686]},"properties":{"name":"Tegel","city":"Berlin","country":"Germany","iata_code":"TXL","links_count":418,"objectID":"351"}},{"type":"Feature","geometry":{"type":"Point","coordinates":[-6.270075,53.421333]},"properties":{"name":"Dublin","city":"Dublin","country":"Ireland","iata_code":"DUB","links_count":414,"objectID":"599"}},{"type":"Feature","geometry":{"type":"Point","coordinates":[121.336319,31.197875]},"properties":{"name":"Hongqiao Intl","city":"Shanghai","country":"China","iata_code":"SHA","links_count":411,"objectID":"3391"}},{"type":"Feature","geometry":{"type":"Point","coordinates":[151.177222,-33.946111]},"properties":{"name":"Sydney Intl","city":"Sydney","country":"Australia","iata_code":"SYD","links_count":410,"objectID":"3361"}},{"type":"Feature","geometry":{"type":"Point","coordinates":[-4.499106,36.6749]},"properties":{"name":"Malaga","city":"Malaga","country":"Spain","iata_code":"AGP","links_count":410,"objectID":"1230"}},{"type":"Feature","geometry":{"type":"Point","coordinates":[2.359444,48.725278]},"properties":{"name":"Orly","city":"Paris","country":"France","iata_code":"ORY","links_count":404,"objectID":"1386"}},{"type":"Feature","geometry":{"type":"Point","coordinates":[23.944467,37.936358]},"properties":{"name":"Eleftherios Venizelos Intl","city":"Athens","country":"Greece","iata_code":"ATH","links_count":403,"objectID":"3941"}},{"type":"Feature","geometry":{"type":"Point","coordinates":[-122.309306,47.449]},"properties":{"name":"Seattle Tacoma Intl","city":"Seattle","country":"United States","iata_code":"SEA","links_count":403,"objectID":"3577"}},{"type":"Feature","geometry":{"type":"Point","coordinates":[37.414589,55.972642]},"properties":{"name":"Sheremetyevo","city":"Moscow","country":"Russia","iata_code":"SVO","links_count":397,"objectID":"2985"}},{"type":"Feature","geometry":{"type":"Point","coordinates":[-77.037722,38.852083]},"properties":{"name":"Ronald Reagan Washington Natl","city":"Washington","country":"United States","iata_code":"DCA","links_count":388,"objectID":"3520"}},{"type":"Feature","geometry":{"type":"Point","coordinates":[-46.469511,-23.432075]},"properties":{"name":"Guarulhos Gov Andre Franco Montouro","city":"Sao Paulo","country":"Brazil","iata_code":"GRU","links_count":387,"objectID":"2564"}},{"type":"Feature","geometry":{"type":"Point","coordinates":[-77.455811,38.944533]},"properties":{"name":"Washington Dulles Intl","city":"Washington","country":"United States","iata_code":"IAD","links_count":386,"objectID":"3714"}},{"type":"Feature","geometry":{"type":"Point","coordinates":[121.019581,14.508647]},"properties":{"name":"Ninoy Aquino Intl","city":"Manila","country":"Philippines","iata_code":"MNL","links_count":386,"objectID":"2397"}},{"type":"Feature","geometry":{"type":"Point","coordinates":[8.728111,45.630606]},"properties":{"name":"Malpensa","city":"Milano","country":"Italy","iata_code":"MXP","links_count":386,"objectID":"1524"}},{"type":"Feature","geometry":{"type":"Point","coordinates":[113.219633,28.189158]},"properties":{"name":"Huanghua","city":"Changcha","country":"China","iata_code":"CSX","links_count":377,"objectID":"3371"}},{"type":"Feature","geometry":{"type":"Point","coordinates":[51.565056,25.261125]},"properties":{"name":"Doha Intl","city":"Doha","country":"Qatar","iata_code":"DOH","links_count":377,"objectID":"2241"}},{"type":"Feature","geometry":{"type":"Point","coordinates":[39.156536,21.679564]},"properties":{"name":"King Abdulaziz Intl","city":"Jeddah","country":"Saudi Arabia","iata_code":"JED","links_count":377,"objectID":"2072"}},{"type":"Feature","geometry":{"type":"Point","coordinates":[120.374436,36.266108]},"properties":{"name":"Liuting","city":"Qingdao","country":"China","iata_code":"TAO","links_count":376,"objectID":"3390"}},{"type":"Feature","geometry":{"type":"Point","coordinates":[-80.15275,26.072583]},"properties":{"name":"Fort Lauderdale Hollywood Intl","city":"Fort Lauderdale","country":"United States","iata_code":"FLL","links_count":374,"objectID":"3533"}},{"type":"Feature","geometry":{"type":"Point","coordinates":[114.2081,30.783758]},"properties":{"name":"Tianhe","city":"Wuhan","country":"China","iata_code":"WUH","links_count":374,"objectID":"3376"}},{"type":"Feature","geometry":{"type":"Point","coordinates":[-73.740833,45.470556]},"properties":{"name":"Pierre Elliott Trudeau Intl","city":"Montreal","country":"Canada","iata_code":"YUL","links_count":371,"objectID":"146"}},{"type":"Feature","geometry":{"type":"Point","coordinates":[30.262503,59.800292]},"properties":{"name":"Pulkovo","city":"St. Petersburg","country":"Russia","iata_code":"LED","links_count":368,"objectID":"2948"}},{"type":"Feature","geometry":{"type":"Point","coordinates":[106.655897,-6.125567]},"properties":{"name":"Soekarno Hatta Intl","city":"Jakarta","country":"Indonesia","iata_code":"CGK","links_count":367,"objectID":"3275"}},{"type":"Feature","geometry":{"type":"Point","coordinates":[11.100361,60.193917]},"properties":{"name":"Gardermoen","city":"Oslo","country":"Norway","iata_code":"OSL","links_count":363,"objectID":"644"}},{"type":"Feature","geometry":{"type":"Point","coordinates":[14.26,50.100833]},"properties":{"name":"Ruzyne","city":"Prague","country":"Czech Republic","iata_code":"PRG","links_count":361,"objectID":"1587"}},{"type":"Feature","geometry":{"type":"Point","coordinates":[113.840889,34.519672]},"properties":{"name":"Xinzheng","city":"Zhengzhou","country":"China","iata_code":"CGO","links_count":348,"objectID":"3375"}},{"type":"Feature","geometry":{"type":"Point","coordinates":[0.235,51.885]},"properties":{"name":"Stansted","city":"London","country":"United Kingdom","iata_code":"STN","links_count":343,"objectID":"548"}},{"type":"Feature","geometry":{"type":"Point","coordinates":[118.862025,31.742042]},"properties":{"name":"Lukou","city":"Nanjing","country":"China","iata_code":"NKG","links_count":330,"objectID":"3388"}},{"type":"Feature","geometry":{"type":"Point","coordinates":[6.10895,46.238064]},"properties":{"name":"Geneve Cointrin","city":"Geneva","country":"Switzerland","iata_code":"GVA","links_count":329,"objectID":"1665"}},{"type":"Feature","geometry":{"type":"Point","coordinates":[28.246,-26.139166]},"properties":{"name":"Johannesburg Intl","city":"Johannesburg","country":"South Africa","iata_code":"JNB","links_count":321,"objectID":"813"}},{"type":"Feature","geometry":{"type":"Point","coordinates":[9.988228,53.630389]},"properties":{"name":"Hamburg","city":"Hamburg","country":"Germany","iata_code":"HAM","links_count":321,"objectID":"342"}},{"type":"Feature","geometry":{"type":"Point","coordinates":[24.963333,60.317222]},"properties":{"name":"Helsinki Vantaa","city":"Helsinki","country":"Finland","iata_code":"HEL","links_count":320,"objectID":"421"}},{"type":"Feature","geometry":{"type":"Point","coordinates":[-16.572489,28.044475]},"properties":{"name":"Tenerife Sur","city":"Tenerife","country":"Spain","iata_code":"TFS","links_count":318,"objectID":"1056"}},{"type":"Feature","geometry":{"type":"Point","coordinates":[-73.872608,40.777245]},"properties":{"name":"La Guardia","city":"New York","country":"United States","iata_code":"LGA","links_count":316,"objectID":"3697"}},{"type":"Feature","geometry":{"type":"Point","coordinates":[139.779694,35.552258]},"properties":{"name":"Tokyo Intl","city":"Tokyo","country":"Japan","iata_code":"HND","links_count":315,"objectID":"2359"}},{"type":"Feature","geometry":{"type":"Point","coordinates":[-123.184444,49.193889]},"properties":{"name":"Vancouver Intl","city":"Vancouver","country":"Canada","iata_code":"YVR","links_count":315,"objectID":"156"}},{"type":"Feature","geometry":{"type":"Point","coordinates":[-0.558156,38.282169]},"properties":{"name":"Alicante","city":"Alicante","country":"Spain","iata_code":"ALC","links_count":314,"objectID":"1212"}},{"type":"Feature","geometry":{"type":"Point","coordinates":[-86.877083,21.036528]},"properties":{"name":"Cancun Intl","city":"Cancun","country":"Mexico","iata_code":"CUN","links_count":311,"objectID":"1852"}},{"type":"Feature","geometry":{"type":"Point","coordinates":[-15.386586,27.931886]},"properties":{"name":"Gran Canaria","city":"Gran Canaria","country":"Spain","iata_code":"LPA","links_count":308,"objectID":"1054"}},{"type":"Feature","geometry":{"type":"Point","coordinates":[-74.146947,4.701594]},"properties":{"name":"Eldorado Intl","city":"Bogota","country":"Colombia","iata_code":"BOG","links_count":307,"objectID":"2709"}},{"type":"Feature","geometry":{"type":"Point","coordinates":[87.474244,43.907106]},"properties":{"name":"Diwopu","city":"Urumqi","country":"China","iata_code":"URC","links_count":306,"objectID":"3399"}},{"type":"Feature","geometry":{"type":"Point","coordinates":[135.244167,34.4347222]},"properties":{"name":"Kansai","city":"Osaka","country":"Japan","iata_code":"KIX","links_count":304,"objectID":"3992"}},{"type":"Feature","geometry":{"type":"Point","coordinates":[31.405556,30.121944]},"properties":{"name":"Cairo Intl","city":"Cairo","country":"Egypt","iata_code":"CAI","links_count":303,"objectID":"1128"}},{"type":"Feature","geometry":{"type":"Point","coordinates":[153.1175,-27.384167]},"properties":{"name":"Brisbane Intl","city":"Brisbane","country":"Australia","iata_code":"BNE","links_count":296,"objectID":"3320"}},{"type":"Feature","geometry":{"type":"Point","coordinates":[117.346183,39.124353]},"properties":{"name":"Binhai","city":"Tianjin","country":"China","iata_code":"TSN","links_count":294,"objectID":"3368"}},{"type":"Feature","geometry":{"type":"Point","coordinates":[29.309219,40.898553]},"properties":{"name":"Sabiha Gokcen","city":"Istanbul","country":"Turkey","iata_code":"SAW","links_count":290,"objectID":"4317"}},{"type":"Feature","geometry":{"type":"Point","coordinates":[-76.668333,39.175361]},"properties":{"name":"Baltimore Washington Intl","city":"Baltimore","country":"United States","iata_code":"BWI","links_count":286,"objectID":"3849"}},{"type":"Feature","geometry":{"type":"Point","coordinates":[121.5386,38.965667]},"properties":{"name":"Zhoushuizi","city":"Dalian","country":"China","iata_code":"DLC","links_count":285,"objectID":"3404"}},{"type":"Feature","geometry":{"type":"Point","coordinates":[-111.977772,40.788389]},"properties":{"name":"Salt Lake City Intl","city":"Salt Lake City","country":"United States","iata_code":"SLC","links_count":278,"objectID":"3536"}},{"type":"Feature","geometry":{"type":"Point","coordinates":[-82.53325,27.975472]},"properties":{"name":"Tampa Intl","city":"Tampa","country":"United States","iata_code":"TPA","links_count":276,"objectID":"3646"}},{"type":"Feature","geometry":{"type":"Point","coordinates":[46.698776,24.95764]},"properties":{"name":"King Khaled Intl","city":"Riyadh","country":"Saudi Arabia","iata_code":"RUH","links_count":276,"objectID":"2082"}},{"type":"Feature","geometry":{"type":"Point","coordinates":[5.090833,45.726387]},"properties":{"name":"Saint Exupery","city":"Lyon","country":"France","iata_code":"LYS","links_count":275,"objectID":"1335"}},{"type":"Feature","geometry":{"type":"Point","coordinates":[106.800703,26.538522]},"properties":{"name":"Longdongbao","city":"Guiyang","country":"China","iata_code":"KWE","links_count":274,"objectID":"3394"}},{"type":"Feature","geometry":{"type":"Point","coordinates":[9.221964,48.689878]},"properties":{"name":"Stuttgart","city":"Stuttgart","country":"Germany","iata_code":"STR","links_count":273,"objectID":"350"}},{"type":"Feature","geometry":{"type":"Point","coordinates":[123.2901,41.3824]},"properties":{"name":"Shenyang Taoxian International Airport","city":"Shenyang","country":"China","iata_code":"SHE","links_count":272,"objectID":"4144"}},{"type":"Feature","geometry":{"type":"Point","coordinates":[-87.752417,41.785972]},"properties":{"name":"Chicago Midway Intl","city":"Chicago","country":"United States","iata_code":"MDW","links_count":271,"objectID":"3747"}},{"type":"Feature","geometry":{"type":"Point","coordinates":[34.886667,32.011389]},"properties":{"name":"Ben Gurion","city":"Tel-aviv","country":"Israel","iata_code":"TLV","links_count":271,"objectID":"1590"}},{"type":"Feature","geometry":{"type":"Point","coordinates":[117.215992,36.857214]},"properties":{"name":"Jinan","city":"Jinan","country":"China","iata_code":"TNA","links_count":270,"objectID":"4108"}},{"type":"Feature","geometry":{"type":"Point","coordinates":[144.843333,-37.673333]},"properties":{"name":"Melbourne Intl","city":"Melbourne","country":"Australia","iata_code":"MEL","links_count":269,"objectID":"3339"}},{"type":"Feature","geometry":{"type":"Point","coordinates":[7.215872,43.658411]},"properties":{"name":"Cote D\\\\'Azur","city":"Nice","country":"France","iata_code":"NCE","links_count":269,"objectID":"1354"}},{"type":"Feature","geometry":{"type":"Point","coordinates":[119.663272,25.935064]},"properties":{"name":"Changle","city":"Fuzhou","country":"China","iata_code":"FOC","links_count":266,"objectID":"3385"}},{"type":"Feature","geometry":{"type":"Point","coordinates":[7.142744,50.865917]},"properties":{"name":"Koln Bonn","city":"Cologne","country":"Germany","iata_code":"CGN","links_count":265,"objectID":"344"}},{"type":"Feature","geometry":{"type":"Point","coordinates":[5.213611,43.435555]},"properties":{"name":"Provence","city":"Marseille","country":"France","iata_code":"MRS","links_count":265,"objectID":"1353"}},{"type":"Feature","geometry":{"type":"Point","coordinates":[-1.748028,52.453856]},"properties":{"name":"Birmingham","city":"Birmingham","country":"United Kingdom","iata_code":"BHX","links_count":264,"objectID":"469"}},{"type":"Feature","geometry":{"type":"Point","coordinates":[126.250328,45.623403]},"properties":{"name":"Taiping","city":"Harbin","country":"China","iata_code":"HRB","links_count":259,"objectID":"3400"}},{"type":"Feature","geometry":{"type":"Point","coordinates":[36.9275,-1.319167]},"properties":{"name":"Jomo Kenyatta International","city":"Nairobi","country":"Kenya","iata_code":"NBO","links_count":258,"objectID":"4059"}},{"type":"Feature","geometry":{"type":"Point","coordinates":[30.800461,36.898731]},"properties":{"name":"Antalya","city":"Antalya","country":"Turkey","iata_code":"AYT","links_count":253,"objectID":"1688"}},{"type":"Feature","geometry":{"type":"Point","coordinates":[-7.589967,33.367467]},"properties":{"name":"Mohammed V Intl","city":"Casablanca","country":"Morocco","iata_code":"CMN","links_count":250,"objectID":"1074"}},{"type":"Feature","geometry":{"type":"Point","coordinates":[-90.258028,29.993389]},"properties":{"name":"Louis Armstrong New Orleans Intl","city":"New Orleans","country":"United States","iata_code":"MSY","links_count":248,"objectID":"3861"}},{"type":"Feature","geometry":{"type":"Point","coordinates":[12.351944,45.505278]},"properties":{"name":"Venezia Tessera","city":"Venice","country":"Italy","iata_code":"VCE","links_count":245,"objectID":"1551"}},{"type":"Feature","geometry":{"type":"Point","coordinates":[20.967122,52.16575]},"properties":{"name":"Okecie","city":"Warsaw","country":"Poland","iata_code":"WAW","links_count":240,"objectID":"679"}},{"type":"Feature","geometry":{"type":"Point","coordinates":[47.968928,29.226567]},"properties":{"name":"Kuwait Intl","city":"Kuwait","country":"Kuwait","iata_code":"KWI","links_count":239,"objectID":"2176"}},{"type":"Feature","geometry":{"type":"Point","coordinates":[-117.189667,32.733556]},"properties":{"name":"San Diego Intl","city":"San Diego","country":"United States","iata_code":"SAN","links_count":238,"objectID":"3731"}},{"type":"Feature","geometry":{"type":"Point","coordinates":[-3.3725,55.95]},"properties":{"name":"Edinburgh","city":"Edinburgh","country":"United Kingdom","iata_code":"EDI","links_count":237,"objectID":"535"}},{"type":"Feature","geometry":{"type":"Point","coordinates":[-157.922428,21.318681]},"properties":{"name":"Honolulu Intl","city":"Honolulu","country":"United States","iata_code":"HNL","links_count":233,"objectID":"3728"}},{"type":"Feature","geometry":{"type":"Point","coordinates":[15.0664,37.466781]},"properties":{"name":"Catania Fontanarossa","city":"Catania","country":"Italy","iata_code":"CTA","links_count":233,"objectID":"1509"}},{"type":"Feature","geometry":{"type":"Point","coordinates":[-13.605225,28.945464]},"properties":{"name":"Lanzarote","city":"Las Palmas","country":"Spain","iata_code":"ACE","links_count":233,"objectID":"1055"}},{"type":"Feature","geometry":{"type":"Point","coordinates":[-122.5975,45.588722]},"properties":{"name":"Portland Intl","city":"Portland","country":"United States","iata_code":"PDX","links_count":230,"objectID":"3720"}},{"type":"Feature","geometry":{"type":"Point","coordinates":[-77.114319,-12.021889]},"properties":{"name":"Jorge Chavez Intl","city":"Lima","country":"Peru","iata_code":"LIM","links_count":230,"objectID":"2789"}},{"type":"Feature","geometry":{"type":"Point","coordinates":[108.172442,22.608267]},"properties":{"name":"Wuxu","city":"Nanning","country":"China","iata_code":"NNG","links_count":228,"objectID":"3373"}},{"type":"Feature","geometry":{"type":"Point","coordinates":[-114.020278,51.113888]},"properties":{"name":"Calgary Intl","city":"Calgary","country":"Canada","iata_code":"YYC","links_count":228,"objectID":"178"}},{"type":"Feature","geometry":{"type":"Point","coordinates":[26.102178,44.572161]},"properties":{"name":"Henri Coanda","city":"Bucharest","country":"Romania","iata_code":"OTP","links_count":227,"objectID":"1657"}},{"type":"Feature","geometry":{"type":"Point","coordinates":[14.4775,35.857497]},"properties":{"name":"Luqa","city":"Malta","country":"Malta","iata_code":"MLA","links_count":226,"objectID":"1606"}},{"type":"Feature","geometry":{"type":"Point","coordinates":[35.993214,31.722556]},"properties":{"name":"Queen Alia Intl","city":"Amman","country":"Jordan","iata_code":"AMM","links_count":223,"objectID":"2170"}},{"type":"Feature","geometry":{"type":"Point","coordinates":[-90.370028,38.748697]},"properties":{"name":"Lambert St Louis Intl","city":"St. Louis","country":"United States","iata_code":"STL","links_count":221,"objectID":"3678"}},{"type":"Feature","geometry":{"type":"Point","coordinates":[112.628428,37.746897]},"properties":{"name":"Wusu","city":"Taiyuan","country":"China","iata_code":"TYN","links_count":220,"objectID":"3369"}},{"type":"Feature","geometry":{"type":"Point","coordinates":[25.180297,35.339719]},"properties":{"name":"Nikos Kazantzakis","city":"Heraklion","country":"Greece","iata_code":"HER","links_count":219,"objectID":"1452"}},{"type":"Feature","geometry":{"type":"Point","coordinates":[109.412272,18.302897]},"properties":{"name":"Phoenix International","city":"Sanya","country":"China","iata_code":"SYX","links_count":218,"objectID":"4030"}},{"type":"Feature","geometry":{"type":"Point","coordinates":[106.651856,10.818797]},"properties":{"name":"Tansonnhat Intl","city":"Ho Chi Minh City","country":"Vietnam","iata_code":"SGN","links_count":218,"objectID":"3205"}},{"type":"Feature","geometry":{"type":"Point","coordinates":[110.458961,19.934856]},"properties":{"name":"Meilan","city":"Haikou","country":"China","iata_code":"HAK","links_count":215,"objectID":"4120"}},{"type":"Feature","geometry":{"type":"Point","coordinates":[-0.368333,51.874722]},"properties":{"name":"Luton","city":"London","country":"United Kingdom","iata_code":"LTN","links_count":214,"objectID":"492"}},{"type":"Feature","geometry":{"type":"Point","coordinates":[110.039197,25.218106]},"properties":{"name":"Liangjiang","city":"Guilin","country":"China","iata_code":"KWL","links_count":214,"objectID":"3372"}},{"type":"Feature","geometry":{"type":"Point","coordinates":[38.799319,8.977889]},"properties":{"name":"Bole Intl","city":"Addis Ababa","country":"Ethiopia","iata_code":"ADD","links_count":214,"objectID":"1107"}},{"type":"Feature","geometry":{"type":"Point","coordinates":[174.791667,-37.008056]},"properties":{"name":"Auckland Intl","city":"Auckland","country":"New Zealand","iata_code":"AKL","links_count":213,"objectID":"2006"}},{"type":"Feature","geometry":{"type":"Point","coordinates":[-79.383453,9.071364]},"properties":{"name":"Tocumen Intl","city":"Panama City","country":"Panama","iata_code":"PTY","links_count":212,"objectID":"1871"}},{"type":"Feature","geometry":{"type":"Point","coordinates":[80.180517,12.994414]},"properties":{"name":"Chennai Intl","city":"Madras","country":"India","iata_code":"MAA","links_count":211,"objectID":"3144"}},{"type":"Feature","geometry":{"type":"Point","coordinates":[-7.965911,37.014425]},"properties":{"name":"Faro","city":"Faro","country":"Portugal","iata_code":"FAO","links_count":211,"objectID":"1626"}},{"type":"Feature","geometry":{"type":"Point","coordinates":[58.284444,23.593278]},"properties":{"name":"Seeb Intl","city":"Muscat","country":"Oman","iata_code":"MCT","links_count":208,"objectID":"2194"}},{"type":"Feature","geometry":{"type":"Point","coordinates":[-66.001833,18.439417]},"properties":{"name":"Luis Munoz Marin Intl","city":"San Juan","country":"Puerto Rico","iata_code":"SJU","links_count":204,"objectID":"2890"}},{"type":"Feature","geometry":{"type":"Point","coordinates":[79.884117,7.180756]},"properties":{"name":"Bandaranaike Intl Colombo","city":"Colombo","country":"Sri Lanka","iata_code":"CMB","links_count":203,"objectID":"3024"}},{"type":"Feature","geometry":{"type":"Point","coordinates":[23.971111,56.923611]},"properties":{"name":"Riga Intl","city":"Riga","country":"Latvia","iata_code":"RIX","links_count":202,"objectID":"3953"}},{"type":"Feature","geometry":{"type":"Point","coordinates":[30.894722,50.345]},"properties":{"name":"Boryspil Intl","city":"Kiev","country":"Ukraine","iata_code":"KBP","links_count":202,"objectID":"2939"}},{"type":"Feature","geometry":{"type":"Point","coordinates":[-8.681389,41.248055]},"properties":{"name":"Porto","city":"Porto","country":"Portugal","iata_code":"OPO","links_count":202,"objectID":"1636"}},{"type":"Feature","geometry":{"type":"Point","coordinates":[1.373117,38.872858]},"properties":{"name":"Ibiza","city":"Ibiza","country":"Spain","iata_code":"IBZ","links_count":202,"objectID":"1225"}},{"type":"Feature","geometry":{"type":"Point","coordinates":[115.167172,-8.748169]},"properties":{"name":"Bali Ngurah Rai","city":"Denpasar","country":"Indonesia","iata_code":"DPS","links_count":201,"objectID":"3940"}},{"type":"Feature","geometry":{"type":"Point","coordinates":[-2.719089,51.382669]},"properties":{"name":"Bristol","city":"Bristol","country":"United Kingdom","iata_code":"BRS","links_count":200,"objectID":"490"}},{"type":"Feature","geometry":{"type":"Point","coordinates":[60.802728,56.743108]},"properties":{"name":"Koltsovo","city":"Yekaterinburg","country":"Russia","iata_code":"SVX","links_count":199,"objectID":"2975"}},{"type":"Feature","geometry":{"type":"Point","coordinates":[-47.918625,-15.8711]},"properties":{"name":"Presidente Juscelino Kubitschek","city":"Brasilia","country":"Brazil","iata_code":"BSB","links_count":197,"objectID":"2531"}},{"type":"Feature","geometry":{"type":"Point","coordinates":[-4.433056,55.871944]},"properties":{"name":"Glasgow","city":"Glasgow","country":"United Kingdom","iata_code":"GLA","links_count":196,"objectID":"534"}},{"type":"Feature","geometry":{"type":"Point","coordinates":[77.668206,12.949986]},"properties":{"name":"Bangalore","city":"Bangalore","country":"India","iata_code":"BLR","links_count":195,"objectID":"3131"}},{"type":"Feature","geometry":{"type":"Point","coordinates":[55.51715,25.328575]},"properties":{"name":"Sharjah Intl","city":"Sharjah","country":"United Arab Emirates","iata_code":"SHJ","links_count":195,"objectID":"2191"}},{"type":"Feature","geometry":{"type":"Point","coordinates":[19.255592,47.436933]},"properties":{"name":"Ferihegy","city":"Budapest","country":"Hungary","iata_code":"BUD","links_count":195,"objectID":"1489"}},{"type":"Feature","geometry":{"type":"Point","coordinates":[88.446722,22.654739]},"properties":{"name":"Netaji Subhash Chandra Bose Intl","city":"Kolkata","country":"India","iata_code":"CCU","links_count":194,"objectID":"3043"}},{"type":"Feature","geometry":{"type":"Point","coordinates":[-43.243647,-22.808903]},"properties":{"name":"Galeao Antonio Carlos Jobim","city":"Rio De Janeiro","country":"Brazil","iata_code":"GIG","links_count":194,"objectID":"2560"}},{"type":"Feature","geometry":{"type":"Point","coordinates":[-1.328056,52.831111]},"properties":{"name":"Nottingham East Midlands","city":"East Midlands","country":"United Kingdom","iata_code":"EMA","links_count":192,"objectID":"523"}},{"type":"Feature","geometry":{"type":"Point","coordinates":[-13.863761,28.452717]},"properties":{"name":"Fuerteventura","city":"Fuerteventura","country":"Spain","iata_code":"FUE","links_count":192,"objectID":"1051"}},{"type":"Feature","geometry":{"type":"Point","coordinates":[33.62485,34.875117]},"properties":{"name":"Larnaca","city":"Larnaca","country":"Cyprus","iata_code":"LCA","links_count":190,"objectID":"1197"}},{"type":"Feature","geometry":{"type":"Point","coordinates":[7.529167,47.59]},"properties":{"name":"EuroAirport Basel-Mulhouse-Freiburg","city":"Basel","country":"Switzerland","iata_code":"BSL","links_count":189,"objectID":"4053"}},{"type":"Feature","geometry":{"type":"Point","coordinates":[-103.311167,20.5218]},"properties":{"name":"Don Miguel Hidalgo Y Costilla Intl","city":"Guadalajara","country":"Mexico","iata_code":"GDL","links_count":185,"objectID":"1804"}},{"type":"Feature","geometry":{"type":"Point","coordinates":[-1.610725,47.153189]},"properties":{"name":"Nantes Atlantique","city":"Nantes","country":"France","iata_code":"NTE","links_count":183,"objectID":"1418"}},{"type":"Feature","geometry":{"type":"Point","coordinates":[115.966944,-31.940278]},"properties":{"name":"Perth Intl","city":"Perth","country":"Australia","iata_code":"PER","links_count":182,"objectID":"3351"}},{"type":"Feature","geometry":{"type":"Point","coordinates":[-66.990583,10.603117]},"properties":{"name":"Simon Bolivar Intl","city":"Caracas","country":"Venezuela","iata_code":"CCS","links_count":181,"objectID":"2851"}},{"type":"Feature","geometry":{"type":"Point","coordinates":[82.650656,55.012622]},"properties":{"name":"Tolmachevo","city":"Novosibirsk","country":"Russia","iata_code":"OVB","links_count":177,"objectID":"4078"}},{"type":"Feature","geometry":{"type":"Point","coordinates":[3.215408,36.691014]},"properties":{"name":"Houari Boumediene","city":"Algier","country":"Algeria","iata_code":"ALG","links_count":176,"objectID":"210"}},{"type":"Feature","geometry":{"type":"Point","coordinates":[11.288667,44.535444]},"properties":{"name":"Bologna","city":"Bologna","country":"Italy","iata_code":"BLQ","links_count":176,"objectID":"1538"}},{"type":"Feature","geometry":{"type":"Point","coordinates":[10.227217,36.851033]},"properties":{"name":"Carthage","city":"Tunis","country":"Tunisia","iata_code":"TUN","links_count":175,"objectID":"287"}},{"type":"Feature","geometry":{"type":"Point","coordinates":[111.824103,40.851422]},"properties":{"name":"Baita Airport","city":"Hohhot","country":"China","iata_code":"HET","links_count":174,"objectID":"6345"}},{"type":"Feature","geometry":{"type":"Point","coordinates":[105.807178,21.221192]},"properties":{"name":"Noibai Intl","city":"Hanoi","country":"Vietnam","iata_code":"HAN","links_count":174,"objectID":"3199"}},{"type":"Feature","geometry":{"type":"Point","coordinates":[22.97095,40.519725]},"properties":{"name":"Makedonia","city":"Thessaloniki","country":"Greece","iata_code":"SKG","links_count":174,"objectID":"1486"}},{"type":"Feature","geometry":{"type":"Point","coordinates":[115.9,28.865]},"properties":{"name":"Changbei Intl","city":"Nanchang","country":"China","iata_code":"KHN","links_count":172,"objectID":"3384"}},{"type":"Feature","geometry":{"type":"Point","coordinates":[37.261486,55.591531]},"properties":{"name":"Vnukovo","city":"Moscow","country":"Russia","iata_code":"VKO","links_count":171,"objectID":"2988"}},{"type":"Feature","geometry":{"type":"Point","coordinates":[20.309139,44.818444]},"properties":{"name":"Beograd","city":"Belgrade","country":"Serbia","iata_code":"BEG","links_count":171,"objectID":"1739"}},{"type":"Feature","geometry":{"type":"Point","coordinates":[130.450686,33.585942]},"properties":{"name":"Fukuoka","city":"Fukuoka","country":"Japan","iata_code":"FUK","links_count":170,"objectID":"2305"}},{"type":"Feature","geometry":{"type":"Point","coordinates":[50.63361,26.270834]},"properties":{"name":"Bahrain Intl","city":"Bahrain","country":"Bahrain","iata_code":"BAH","links_count":170,"objectID":"2057"}},{"type":"Feature","geometry":{"type":"Point","coordinates":[136.805408,34.858414]},"properties":{"name":"Chubu Centrair Intl","city":"Nagoya","country":"Japan","iata_code":"NGO","links_count":169,"objectID":"3942"}},{"type":"Feature","geometry":{"type":"Point","coordinates":[103.617,36.117]},"properties":{"name":"Lanzhou Airport","city":"Lanzhou","country":"China","iata_code":"LHW","links_count":168,"objectID":"6431"}},{"type":"Feature","geometry":{"type":"Point","coordinates":[121.461906,29.826683]},"properties":{"name":"Lishe","city":"Ninbo","country":"China","iata_code":"NGB","links_count":168,"objectID":"3387"}},{"type":"Feature","geometry":{"type":"Point","coordinates":[4.453817,50.459197]},"properties":{"name":"Brussels South","city":"Charleroi","country":"Belgium","iata_code":"CRL","links_count":168,"objectID":"304"}},{"type":"Feature","geometry":{"type":"Point","coordinates":[28.086192,36.405419]},"properties":{"name":"Rhodes Diagoras","city":"Rhodos","country":"Greece","iata_code":"RHO","links_count":168,"objectID":"1472"}},{"type":"Feature","geometry":{"type":"Point","coordinates":[-97.669889,30.194528]},"properties":{"name":"Austin Bergstrom Intl","city":"Austin","country":"United States","iata_code":"AUS","links_count":167,"objectID":"3673"}},{"type":"Feature","geometry":{"type":"Point","coordinates":[-78.787472,35.877639]},"properties":{"name":"Raleigh Durham Intl","city":"Raleigh-durham","country":"United States","iata_code":"RDU","links_count":167,"objectID":"3626"}},{"type":"Feature","geometry":{"type":"Point","coordinates":[-1.691667,55.0375]},"properties":{"name":"Newcastle","city":"Newcastle","country":"United Kingdom","iata_code":"NCL","links_count":165,"objectID":"521"}},{"type":"Feature","geometry":{"type":"Point","coordinates":[13.5225,52.380001]},"properties":{"name":"Schonefeld","city":"Berlin","country":"Germany","iata_code":"SXF","links_count":165,"objectID":"337"}},{"type":"Feature","geometry":{"type":"Point","coordinates":[114.6973,38.280686]},"properties":{"name":"Shijiazhuang Daguocun International Airport","city":"Shijiazhuang","country":"China","iata_code":"SJW","links_count":164,"objectID":"6347"}},{"type":"Feature","geometry":{"type":"Point","coordinates":[-86.678194,36.124472]},"properties":{"name":"Nashville Intl","city":"Nashville","country":"United States","iata_code":"BNA","links_count":164,"objectID":"3690"}},{"type":"Feature","geometry":{"type":"Point","coordinates":[49.79789,26.471161]},"properties":{"name":"King Fahd Intl","city":"Dammam","country":"Saudi Arabia","iata_code":"DMM","links_count":164,"objectID":"2064"}},{"type":"Feature","geometry":{"type":"Point","coordinates":[-0.481625,39.489314]},"properties":{"name":"Valencia","city":"Valencia","country":"Spain","iata_code":"VLC","links_count":163,"objectID":"1246"}},{"type":"Feature","geometry":{"type":"Point","coordinates":[120.852,27.9122]},"properties":{"name":"Wenzhou Yongqiang Airport","city":"Wenzhou","country":"China","iata_code":"WNZ","links_count":162,"objectID":"6392"}},{"type":"Feature","geometry":{"type":"Point","coordinates":[141.692283,42.7752]},"properties":{"name":"New Chitose","city":"Sapporo","country":"Japan","iata_code":"CTS","links_count":162,"objectID":"2287"}},{"type":"Feature","geometry":{"type":"Point","coordinates":[9.704166,45.673889]},"properties":{"name":"Bergamo Orio Al Serio","city":"Bergamo","country":"Italy","iata_code":"BGY","links_count":162,"objectID":"1525"}},{"type":"Feature","geometry":{"type":"Point","coordinates":[-81.849794,41.411689]},"properties":{"name":"Cleveland Hopkins Intl","city":"Cleveland","country":"United States","iata_code":"CLE","links_count":161,"objectID":"3486"}},{"type":"Feature","geometry":{"type":"Point","coordinates":[1.363819,43.629075]},"properties":{"name":"Blagnac","city":"Toulouse","country":"France","iata_code":"TLS","links_count":161,"objectID":"1273"}},{"type":"Feature","geometry":{"type":"Point","coordinates":[116.387778,39.7825]},"properties":{"name":"Beijing Nanyuan Airport","city":"Beijing","country":"China","iata_code":"NAY","links_count":160,"objectID":"6341"}},{"type":"Feature","geometry":{"type":"Point","coordinates":[-1.660569,53.865897]},"properties":{"name":"Leeds Bradford","city":"Leeds","country":"United Kingdom","iata_code":"LBA","links_count":160,"objectID":"517"}},{"type":"Feature","geometry":{"type":"Point","coordinates":[69.281186,41.257861]},"properties":{"name":"Yuzhny","city":"Tashkent","country":"Uzbekistan","iata_code":"TAS","links_count":160,"objectID":"2983"}},{"type":"Feature","geometry":{"type":"Point","coordinates":[128.938222,35.179528]},"properties":{"name":"Gimhae Intl","city":"Busan","country":"South Korea","iata_code":"PUS","links_count":160,"objectID":"2372"}},{"type":"Feature","geometry":{"type":"Point","coordinates":[-94.713905,39.297606]},"properties":{"name":"Kansas City Intl","city":"Kansas City","country":"United States","iata_code":"MCI","links_count":159,"objectID":"3458"}},{"type":"Feature","geometry":{"type":"Point","coordinates":[113.591558,22.149556]},"properties":{"name":"Macau Intl","city":"Macau","country":"Macau","iata_code":"MFM","links_count":158,"objectID":"3121"}},{"type":"Feature","geometry":{"type":"Point","coordinates":[-70.785803,-33.392975]},"properties":{"name":"Arturo Merino Benitez Intl","city":"Santiago","country":"Chile","iata_code":"SCL","links_count":158,"objectID":"2650"}},{"type":"Feature","geometry":{"type":"Point","coordinates":[14.290781,40.886033]},"properties":{"name":"Capodichino","city":"Naples","country":"Italy","iata_code":"NAP","links_count":158,"objectID":"1561"}},{"type":"Feature","geometry":{"type":"Point","coordinates":[117.298436,31.780019]},"properties":{"name":"Luogang","city":"Hefei","country":"China","iata_code":"HFE","links_count":154,"objectID":"3389"}},{"type":"Feature","geometry":{"type":"Point","coordinates":[9.685078,52.461056]},"properties":{"name":"Hannover","city":"Hannover","country":"Germany","iata_code":"HAJ","links_count":152,"objectID":"352"}},{"type":"Feature","geometry":{"type":"Point","coordinates":[10.39275,43.683917]},"properties":{"name":"Pisa","city":"Pisa","country":"Italy","iata_code":"PSA","links_count":152,"objectID":"1562"}},{"type":"Feature","geometry":{"type":"Point","coordinates":[-84.667822,39.048836]},"properties":{"name":"Cincinnati Northern Kentucky Intl","city":"Cincinnati","country":"United States","iata_code":"CVG","links_count":150,"objectID":"3488"}},{"type":"Feature","geometry":{"type":"Point","coordinates":[-58.535833,-34.822222]},"properties":{"name":"Ministro Pistarini","city":"Buenos Aires","country":"Argentina","iata_code":"EZE","links_count":149,"objectID":"3988"}},{"type":"Feature","geometry":{"type":"Point","coordinates":[-95.278889,29.645419]},"properties":{"name":"William P Hobby","city":"Houston","country":"United States","iata_code":"HOU","links_count":149,"objectID":"3566"}},{"type":"Feature","geometry":{"type":"Point","coordinates":[-84.208806,9.993861]},"properties":{"name":"Juan Santamaria Intl","city":"San Jose","country":"Costa Rica","iata_code":"SJO","links_count":149,"objectID":"1885"}},{"type":"Feature","geometry":{"type":"Point","coordinates":[-80.232872,40.491467]},"properties":{"name":"Pittsburgh Intl","city":"Pittsburgh","country":"United States","iata_code":"PIT","links_count":148,"objectID":"3570"}},{"type":"Feature","geometry":{"type":"Point","coordinates":[90.397781,23.843333]},"properties":{"name":"Zia Intl","city":"Dhaka","country":"Bangladesh","iata_code":"DAC","links_count":148,"objectID":"3076"}},{"type":"Feature","geometry":{"type":"Point","coordinates":[78.467586,17.453117]},"properties":{"name":"Hyderabad","city":"Hyderabad","country":"India","iata_code":"HYD","links_count":147,"objectID":"3141"}},{"type":"Feature","geometry":{"type":"Point","coordinates":[-100.106878,25.778489]},"properties":{"name":"General Mariano Escobedo Intl","city":"Monterrey","country":"Mexico","iata_code":"MTY","links_count":145,"objectID":"1825"}},{"type":"Feature","geometry":{"type":"Point","coordinates":[-8.0363,31.606886]},"properties":{"name":"Menara","city":"Marrakech","country":"Morocco","iata_code":"RAK","links_count":145,"objectID":"1075"}},{"type":"Feature","geometry":{"type":"Point","coordinates":[-68.363431,18.567367]},"properties":{"name":"Punta Cana Intl","city":"Punta Cana","country":"Dominican Republic","iata_code":"PUJ","links_count":143,"objectID":"1760"}},{"type":"Feature","geometry":{"type":"Point","coordinates":[6.211517,49.626575]},"properties":{"name":"Luxembourg","city":"Luxemburg","country":"Luxembourg","iata_code":"LUX","links_count":140,"objectID":"629"}},{"type":"Feature","geometry":{"type":"Point","coordinates":[-113.579722,53.309723]},"properties":{"name":"Edmonton Intl","city":"Edmonton","country":"Canada","iata_code":"YEG","links_count":139,"objectID":"49"}},{"type":"Feature","geometry":{"type":"Point","coordinates":[-86.294383,39.717331]},"properties":{"name":"Indianapolis Intl","city":"Indianapolis","country":"United States","iata_code":"IND","links_count":138,"objectID":"3585"}},{"type":"Feature","geometry":{"type":"Point","coordinates":[98.316872,8.1132]},"properties":{"name":"Phuket Intl","city":"Phuket","country":"Thailand","iata_code":"HKT","links_count":138,"objectID":"3179"}},{"type":"Feature","geometry":{"type":"Point","coordinates":[5.218142,60.293386]},"properties":{"name":"Flesland","city":"Bergen","country":"Norway","iata_code":"BGO","links_count":137,"objectID":"636"}},{"type":"Feature","geometry":{"type":"Point","coordinates":[-98.469778,29.533694]},"properties":{"name":"San Antonio Intl","city":"San Antonio","country":"United States","iata_code":"SAT","links_count":136,"objectID":"3621"}},{"type":"Feature","geometry":{"type":"Point","coordinates":[5.374528,51.450139]},"properties":{"name":"Eindhoven","city":"Eindhoven","country":"Netherlands","iata_code":"EIN","links_count":135,"objectID":"585"}},{"type":"Feature","geometry":{"type":"Point","coordinates":[-77.466231,25.038958]},"properties":{"name":"Lynden Pindling Intl","city":"Nassau","country":"Bahamas","iata_code":"NAS","links_count":135,"objectID":"1953"}},{"type":"Feature","geometry":{"type":"Point","coordinates":[100.60675,13.912583]},"properties":{"name":"Don Muang Intl","city":"Bangkok","country":"Thailand","iata_code":"DMK","links_count":134,"objectID":"3157"}},{"type":"Feature","geometry":{"type":"Point","coordinates":[77.040508,43.352072]},"properties":{"name":"Almaty","city":"Alma-ata","country":"Kazakhstan","iata_code":"ALA","links_count":134,"objectID":"2908"}},{"type":"Feature","geometry":{"type":"Point","coordinates":[-0.715556,44.828335]},"properties":{"name":"Merignac","city":"Bordeaux","country":"France","iata_code":"BOD","links_count":134,"objectID":"1264"}},{"type":"Feature","geometry":{"type":"Point","coordinates":[-17.490225,14.739708]},"properties":{"name":"Leopold Sedar Senghor Intl","city":"Dakar","country":"Senegal","iata_code":"DKR","links_count":134,"objectID":"1084"}},{"type":"Feature","geometry":{"type":"Point","coordinates":[35.488389,33.820931]},"properties":{"name":"Rafic Hariri Intl","city":"Beirut","country":"Lebanon","iata_code":"BEY","links_count":133,"objectID":"2177"}},{"type":"Feature","geometry":{"type":"Point","coordinates":[27.156953,38.292392]},"properties":{"name":"Adnan Menderes","city":"Izmir","country":"Turkey","iata_code":"ADB","links_count":133,"objectID":"1706"}},{"type":"Feature","geometry":{"type":"Point","coordinates":[23.406167,42.695194]},"properties":{"name":"Sofia","city":"Sofia","country":"Bulgaria","iata_code":"SOF","links_count":132,"objectID":"1194"}},{"type":"Feature","geometry":{"type":"Point","coordinates":[125.1201,43.5412]},"properties":{"name":"Changchun","city":"Changchun","country":"China","iata_code":"CGQ","links_count":131,"objectID":"4380"}},{"type":"Feature","geometry":{"type":"Point","coordinates":[106.009167,38.481944]},"properties":{"name":"Yinchuan","city":"Yinchuan","country":"China","iata_code":"INC","links_count":131,"objectID":"4085"}},{"type":"Feature","geometry":{"type":"Point","coordinates":[112.786858,-7.379831]},"properties":{"name":"Juanda","city":"Surabaya","country":"Indonesia","iata_code":"SUB","links_count":131,"objectID":"3928"}},{"type":"Feature","geometry":{"type":"Point","coordinates":[100.23333,26.883333]},"properties":{"name":"Lijiang Airport","city":"Lijiang","country":"China","iata_code":"LJG","links_count":129,"objectID":"4033"}},{"type":"Feature","geometry":{"type":"Point","coordinates":[120.350006,22.577094]},"properties":{"name":"Kaohsiung Intl","city":"Kaohsiung","country":"Taiwan","iata_code":"KHH","links_count":129,"objectID":"2264"}},{"type":"Feature","geometry":{"type":"Point","coordinates":[0.055278,51.505278]},"properties":{"name":"City","city":"London","country":"United Kingdom","iata_code":"LCY","links_count":128,"objectID":"503"}},{"type":"Feature","geometry":{"type":"Point","coordinates":[59.643,36.234]},"properties":{"name":"Mashhad","city":"Mashhad","country":"Iran","iata_code":"MHD","links_count":128,"objectID":"4331"}},{"type":"Feature","geometry":{"type":"Point","coordinates":[-81.755167,26.536167]},"properties":{"name":"Southwest Florida Intl","city":"Fort Myers","country":"United States","iata_code":"RSW","links_count":128,"objectID":"3793"}},{"type":"Feature","geometry":{"type":"Point","coordinates":[-82.891889,39.997972]},"properties":{"name":"Port Columbus Intl","city":"Columbus","country":"United States","iata_code":"CMH","links_count":128,"objectID":"3759"}},{"type":"Feature","geometry":{"type":"Point","coordinates":[50.046667,40.4675]},"properties":{"name":"Heydar Aliyev","city":"Baku","country":"Azerbaijan","iata_code":"GYD","links_count":128,"objectID":"2922"}},{"type":"Feature","geometry":{"type":"Point","coordinates":[-58.415606,-34.559175]},"properties":{"name":"Aeroparque Jorge Newbery","city":"Buenos Aires","country":"Argentina","iata_code":"AEP","links_count":128,"objectID":"2442"}},{"type":"Feature","geometry":{"type":"Point","coordinates":[-2.910608,43.301097]},"properties":{"name":"Bilbao","city":"Bilbao","country":"Spain","iata_code":"BIO","links_count":128,"objectID":"1216"}},{"type":"Feature","geometry":{"type":"Point","coordinates":[-5.893106,37.418]},"properties":{"name":"Sevilla","city":"Sevilla","country":"Spain","iata_code":"SVQ","links_count":127,"objectID":"1253"}},{"type":"Feature","geometry":{"type":"Point","coordinates":[13.091019,38.175958]},"properties":{"name":"Palermo","city":"Palermo","country":"Italy","iata_code":"PMO","links_count":126,"objectID":"1512"}},{"type":"Feature","geometry":{"type":"Point","coordinates":[-87.896583,42.947222]},"properties":{"name":"General Mitchell Intl","city":"Milwaukee","country":"United States","iata_code":"MKE","links_count":125,"objectID":"3717"}},{"type":"Feature","geometry":{"type":"Point","coordinates":[67.160797,24.906547]},"properties":{"name":"Jinnah Intl","city":"Karachi","country":"Pakistan","iata_code":"KHI","links_count":125,"objectID":"2206"}},{"type":"Feature","geometry":{"type":"Point","coordinates":[51.313416,35.689167]},"properties":{"name":"Mehrabad Intl","city":"Teheran","country":"Iran","iata_code":"THR","links_count":125,"objectID":"2131"}},{"type":"Feature","geometry":{"type":"Point","coordinates":[127.645869,26.195814]},"properties":{"name":"Naha","city":"Okinawa","country":"Japan","iata_code":"OKA","links_count":123,"objectID":"2384"}},{"type":"Feature","geometry":{"type":"Point","coordinates":[51.152222,35.416111]},"properties":{"name":"Imam Khomeini","city":"Tehran","country":"Iran","iata_code":"IKA","links_count":122,"objectID":"4330"}},{"type":"Feature","geometry":{"type":"Point","coordinates":[18.268244,42.561353]},"properties":{"name":"Dubrovnik","city":"Dubrovnik","country":"Croatia","iata_code":"DBV","links_count":121,"objectID":"1200"}},{"type":"Feature","geometry":{"type":"Point","coordinates":[-121.929022,37.3626]},"properties":{"name":"Norman Y Mineta San Jose Intl","city":"San Jose","country":"United States","iata_code":"SJC","links_count":120,"objectID":"3748"}},{"type":"Feature","geometry":{"type":"Point","coordinates":[9.276739,45.445103]},"properties":{"name":"Linate","city":"Milan","country":"Italy","iata_code":"LIN","links_count":120,"objectID":"1529"}},{"type":"Feature","geometry":{"type":"Point","coordinates":[2.112778,49.454444]},"properties":{"name":"Tille","city":"Beauvais","country":"France","iata_code":"BVA","links_count":120,"objectID":"1367"}},{"type":"Feature","geometry":{"type":"Point","coordinates":[113.376,22.0064]},"properties":{"name":"Zhuhai Airport","city":"Zhuhai","country":"China","iata_code":"ZUH","links_count":119,"objectID":"6355"}},{"type":"Feature","geometry":{"type":"Point","coordinates":[3.321156,6.577369]},"properties":{"name":"Murtala Muhammed","city":"Lagos","country":"Nigeria","iata_code":"LOS","links_count":119,"objectID":"273"}},{"type":"Feature","geometry":{"type":"Point","coordinates":[-149.996361,61.174361]},"properties":{"name":"Ted Stevens Anchorage Intl","city":"Anchorage","country":"United States","iata_code":"ANC","links_count":118,"objectID":"3774"}},{"type":"Feature","geometry":{"type":"Point","coordinates":[76.391389,10.155556]},"properties":{"name":"Cochin","city":"Kochi","country":"India","iata_code":"COK","links_count":118,"objectID":"3136"}},{"type":"Feature","geometry":{"type":"Point","coordinates":[126.493028,33.511306]},"properties":{"name":"Jeju Intl","city":"Cheju","country":"South Korea","iata_code":"CJU","links_count":118,"objectID":"2370"}},{"type":"Feature","geometry":{"type":"Point","coordinates":[73.099233,33.616653]},"properties":{"name":"Chaklala","city":"Islamabad","country":"Pakistan","iata_code":"ISB","links_count":117,"objectID":"2223"}},{"type":"Feature","geometry":{"type":"Point","coordinates":[-2.849722,53.333611]},"properties":{"name":"Liverpool","city":"Liverpool","country":"United Kingdom","iata_code":"LPL","links_count":116,"objectID":"491"}},{"type":"Feature","geometry":{"type":"Point","coordinates":[25.285767,54.634133]},"properties":{"name":"Vilnius Intl","city":"Vilnius","country":"Lithuania","iata_code":"VNO","links_count":116,"objectID":"3959"}},{"type":"Feature","geometry":{"type":"Point","coordinates":[-38.331044,-12.910994]},"properties":{"name":"Deputado Luis Eduardo Magalhaes","city":"Salvador","country":"Brazil","iata_code":"SSA","links_count":116,"objectID":"2621"}},{"type":"Feature","geometry":{"type":"Point","coordinates":[28.7925,36.713056]},"properties":{"name":"Dalaman","city":"Dalaman","country":"Turkey","iata_code":"DLM","links_count":116,"objectID":"1715"}},{"type":"Feature","geometry":{"type":"Point","coordinates":[19.784836,50.077731]},"properties":{"name":"Balice","city":"Krakow","country":"Poland","iata_code":"KRK","links_count":114,"objectID":"669"}},{"type":"Feature","geometry":{"type":"Point","coordinates":[-63.1089,18.040953]},"properties":{"name":"Princess Juliana Intl","city":"Philipsburg","country":"Netherlands Antilles","iata_code":"SXM","links_count":114,"objectID":"2899"}},{"type":"Feature","geometry":{"type":"Point","coordinates":[-47.134444,-23.0075]},"properties":{"name":"Viracopos","city":"Campinas","country":"Brazil","iata_code":"VCP","links_count":114,"objectID":"2578"}},{"type":"Feature","geometry":{"type":"Point","coordinates":[-89.976667,35.042417]},"properties":{"name":"Memphis Intl","city":"Memphis","country":"United States","iata_code":"MEM","links_count":112,"objectID":"3473"}},{"type":"Feature","geometry":{"type":"Point","coordinates":[121.371667,37.401667]},"properties":{"name":"Laishan","city":"Yantai","country":"China","iata_code":"YNT","links_count":112,"objectID":"3392"}},{"type":"Feature","geometry":{"type":"Point","coordinates":[119.554042,-5.061631]},"properties":{"name":"Hasanuddin","city":"Ujung Pandang","country":"Indonesia","iata_code":"UPG","links_count":112,"objectID":"3240"}},{"type":"Feature","geometry":{"type":"Point","coordinates":[-122.220722,37.721278]},"properties":{"name":"Metropolitan Oakland Intl","city":"Oakland","country":"United States","iata_code":"OAK","links_count":111,"objectID":"3453"}},{"type":"Feature","geometry":{"type":"Point","coordinates":[74.403594,31.521564]},"properties":{"name":"Allama Iqbal Intl","city":"Lahore","country":"Pakistan","iata_code":"LHE","links_count":111,"objectID":"2207"}},{"type":"Feature","geometry":{"type":"Point","coordinates":[145.755278,-16.885833]},"properties":{"name":"Cairns Intl","city":"Cairns","country":"Australia","iata_code":"CNS","links_count":110,"objectID":"3322"}},{"type":"Feature","geometry":{"type":"Point","coordinates":[-43.968856,-19.63375]},"properties":{"name":"Tancredo Neves Intl","city":"Belo Horizonte","country":"Brazil","iata_code":"CNF","links_count":110,"objectID":"2537"}},{"type":"Feature","geometry":{"type":"Point","coordinates":[-121.590778,38.695417]},"properties":{"name":"Sacramento Intl","city":"Sacramento","country":"United States","iata_code":"SMF","links_count":108,"objectID":"3817"}},{"type":"Feature","geometry":{"type":"Point","coordinates":[28.030731,53.882469]},"properties":{"name":"Minsk 2","city":"Minsk 2","country":"Belarus","iata_code":"MSQ","links_count":108,"objectID":"2954"}},{"type":"Feature","geometry":{"type":"Point","coordinates":[-0.166786,5.605186]},"properties":{"name":"Kotoka Intl","city":"Accra","country":"Ghana","iata_code":"ACC","links_count":107,"objectID":"248"}},{"type":"Feature","geometry":{"type":"Point","coordinates":[12.279819,57.662836]},"properties":{"name":"Landvetter","city":"Gothenborg","country":"Sweden","iata_code":"GOT","links_count":106,"objectID":"687"}},{"type":"Feature","geometry":{"type":"Point","coordinates":[5.637856,58.876778]},"properties":{"name":"Sola","city":"Stavanger","country":"Norway","iata_code":"SVG","links_count":106,"objectID":"666"}},{"type":"Feature","geometry":{"type":"Point","coordinates":[68.825,38.543333]},"properties":{"name":"Dushanbe","city":"Dushanbe","country":"Tajikistan","iata_code":"DYU","links_count":106,"objectID":"2979"}},{"type":"Feature","geometry":{"type":"Point","coordinates":[11.2051,43.809953]},"properties":{"name":"Firenze","city":"Florence","country":"Italy","iata_code":"FLR","links_count":106,"objectID":"1563"}},{"type":"Feature","geometry":{"type":"Point","coordinates":[-89.055728,13.440947]},"properties":{"name":"El Salvador Intl","city":"San Salvador","country":"El Salvador","iata_code":"SAL","links_count":105,"objectID":"1892"}},{"type":"Feature","geometry":{"type":"Point","coordinates":[32.995083,40.128082]},"properties":{"name":"Esenboga","city":"Ankara","country":"Turkey","iata_code":"ESB","links_count":105,"objectID":"1682"}},{"type":"Feature","geometry":{"type":"Point","coordinates":[-16.774453,32.697889]},"properties":{"name":"Madeira","city":"Funchal","country":"Portugal","iata_code":"FNC","links_count":104,"objectID":"4091"}},{"type":"Feature","geometry":{"type":"Point","coordinates":[116.051181,5.937208]},"properties":{"name":"Kota Kinabalu Intl","city":"Kota Kinabalu","country":"Malaysia","iata_code":"BKI","links_count":104,"objectID":"3269"}},{"type":"Feature","geometry":{"type":"Point","coordinates":[71.466944,51.022222]},"properties":{"name":"Astana Intl","city":"Tselinograd","country":"Kazakhstan","iata_code":"TSE","links_count":104,"objectID":"2910"}},{"type":"Feature","geometry":{"type":"Point","coordinates":[9.517628,40.898661]},"properties":{"name":"Olbia Costa Smeralda","city":"Olbia","country":"Italy","iata_code":"OLB","links_count":104,"objectID":"1520"}},{"type":"Feature","geometry":{"type":"Point","coordinates":[-72.683222,41.938889]},"properties":{"name":"Bradley Intl","city":"Windsor Locks","country":"United States","iata_code":"BDL","links_count":103,"objectID":"3825"}},{"type":"Feature","geometry":{"type":"Point","coordinates":[19.911667,39.601944]},"properties":{"name":"Ioannis Kapodistrias Intl","city":"Kerkyra/corfu","country":"Greece","iata_code":"CFU","links_count":103,"objectID":"1460"}},{"type":"Feature","geometry":{"type":"Point","coordinates":[147.22005,-9.443383]},"properties":{"name":"Port Moresby Jacksons Intl","city":"Port Moresby","country":"Papua New Guinea","iata_code":"POM","links_count":102,"objectID":"5"}},{"type":"Feature","geometry":{"type":"Point","coordinates":[138.530556,-34.945]},"properties":{"name":"Adelaide Intl","city":"Adelaide","country":"Australia","iata_code":"ADL","links_count":102,"objectID":"3341"}},{"type":"Feature","geometry":{"type":"Point","coordinates":[-3.926294,5.261386]},"properties":{"name":"Abidjan Felix Houphouet Boigny Intl","city":"Abidjan","country":"Cote d'Ivoire","iata_code":"ABJ","links_count":102,"objectID":"253"}},{"type":"Feature","geometry":{"type":"Point","coordinates":[18.466222,54.377569]},"properties":{"name":"Lech Walesa","city":"Gdansk","country":"Poland","iata_code":"GDN","links_count":101,"objectID":"668"}},{"type":"Feature","geometry":{"type":"Point","coordinates":[-109.721044,23.15185]},"properties":{"name":"Los Cabos Intl","city":"San Jose Del Cabo","country":"Mexico","iata_code":"SJD","links_count":101,"objectID":"1840"}},{"type":"Feature","geometry":{"type":"Point","coordinates":[8.786667,53.0475]},"properties":{"name":"Neuenland","city":"Bremen","country":"Germany","iata_code":"BRE","links_count":100,"objectID":"353"}},{"type":"Feature","geometry":{"type":"Point","coordinates":[12.594936,41.799361]},"properties":{"name":"Ciampino","city":"Rome","country":"Italy","iata_code":"CIA","links_count":100,"objectID":"1553"}},{"type":"Feature","geometry":{"type":"Point","coordinates":[16.760594,41.138856]},"properties":{"name":"Bari","city":"Bari","country":"Italy","iata_code":"BRI","links_count":100,"objectID":"1501"}},{"type":"Feature","geometry":{"type":"Point","coordinates":[102.043,36.5275]},"properties":{"name":"Xining Caojiabu Airport","city":"Xining","country":"China","iata_code":"XNN","links_count":99,"objectID":"6366"}},{"type":"Feature","geometry":{"type":"Point","coordinates":[96.133222,16.907305]},"properties":{"name":"Yangon Intl","city":"Yangon","country":"Burma","iata_code":"RGN","links_count":99,"objectID":"3239"}},{"type":"Feature","geometry":{"type":"Point","coordinates":[9.719481,4.006081]},"properties":{"name":"Douala","city":"Douala","country":"Cameroon","iata_code":"DLA","links_count":98,"objectID":"897"}},{"type":"Feature","geometry":{"type":"Point","coordinates":[39.705061,24.553422]},"properties":{"name":"Prince Mohammad Bin Abdulaziz","city":"Madinah","country":"Saudi Arabia","iata_code":"MED","links_count":98,"objectID":"2074"}},{"type":"Feature","geometry":{"type":"Point","coordinates":[2.760547,41.900969]},"properties":{"name":"Girona","city":"Gerona","country":"Spain","iata_code":"GRO","links_count":98,"objectID":"1222"}},{"type":"Feature","geometry":{"type":"Point","coordinates":[123.979439,10.307542]},"properties":{"name":"Mactan Cebu Intl","city":"Cebu","country":"Philippines","iata_code":"CEB","links_count":97,"objectID":"4206"}},{"type":"Feature","geometry":{"type":"Point","coordinates":[-81.237489,28.777639]},"properties":{"name":"Orlando Sanford Intl","city":"Sanford","country":"United States","iata_code":"SFB","links_count":97,"objectID":"4167"}},{"type":"Feature","geometry":{"type":"Point","coordinates":[16.297964,43.538944]},"properties":{"name":"Split","city":"Split","country":"Croatia","iata_code":"SPU","links_count":97,"objectID":"1206"}},{"type":"Feature","geometry":{"type":"Point","coordinates":[-63.50861,44.880833]},"properties":{"name":"Halifax Intl","city":"Halifax","country":"Canada","iata_code":"YHZ","links_count":95,"objectID":"73"}},{"type":"Feature","geometry":{"type":"Point","coordinates":[98.962644,18.766847]},"properties":{"name":"Chiang Mai Intl","city":"Chiang Mai","country":"Thailand","iata_code":"CNX","links_count":95,"objectID":"3931"}},{"type":"Feature","geometry":{"type":"Point","coordinates":[11.066897,49.4987]},"properties":{"name":"Nurnberg","city":"Nuernberg","country":"Germany","iata_code":"NUE","links_count":95,"objectID":"347"}},{"type":"Feature","geometry":{"type":"Point","coordinates":[13.159011,32.663544]},"properties":{"name":"Tripoli Intl","city":"Tripoli","country":"Libya","iata_code":"TIP","links_count":95,"objectID":"1157"}},{"type":"Feature","geometry":{"type":"Point","coordinates":[120.429,31.4944]},"properties":{"name":"Wuxi Airport","city":"Wuxi","country":"China","iata_code":"WUX","links_count":94,"objectID":"6390"}},{"type":"Feature","geometry":{"type":"Point","coordinates":[9.151778,55.740322]},"properties":{"name":"Billund","city":"Billund","country":"Denmark","iata_code":"BLL","links_count":94,"objectID":"608"}},{"type":"Feature","geometry":{"type":"Point","coordinates":[7.263892,49.948672]},"properties":{"name":"Frankfurt Hahn","city":"Hahn","country":"Germany","iata_code":"HHN","links_count":94,"objectID":"355"}},{"type":"Feature","geometry":{"type":"Point","coordinates":[-46.655375,-23.626692]},"properties":{"name":"Congonhas","city":"Sao Paulo","country":"Brazil","iata_code":"CGH","links_count":94,"objectID":"2618"}},{"type":"Feature","geometry":{"type":"Point","coordinates":[-69.668925,18.429664]},"properties":{"name":"Las Americas Intl","city":"Santo Domingo","country":"Dominican Republic","iata_code":"SDQ","links_count":93,"objectID":"1762"}},{"type":"Feature","geometry":{"type":"Point","coordinates":[13.231178,-8.858375]},"properties":{"name":"Luanda 4 De Fevereiro","city":"Luanda","country":"Angola","iata_code":"LAD","links_count":92,"objectID":"951"}},{"type":"Feature","geometry":{"type":"Point","coordinates":[55.103174,24.55056]},"properties":{"name":"Dubai Al Maktoum","city":"Dubai","country":"United Arab Emirates","iata_code":"DWC","links_count":92,"objectID":"8076"}},{"type":"Feature","geometry":{"type":"Point","coordinates":[92.475,56.18]},"properties":{"name":"Emelyanovo","city":"Krasnoyarsk","country":"Russia","iata_code":"KJA","links_count":92,"objectID":"4374"}},{"type":"Feature","geometry":{"type":"Point","coordinates":[-105.254167,20.680083]},"properties":{"name":"Licenciado Gustavo Diaz Ordaz Intl","city":"Puerto Vallarta","country":"Mexico","iata_code":"PVR","links_count":92,"objectID":"1836"}},{"type":"Feature","geometry":{"type":"Point","coordinates":[-81.687861,30.494056]},"properties":{"name":"Jacksonville Intl","city":"Jacksonville","country":"United States","iata_code":"JAX","links_count":91,"objectID":"3712"}},{"type":"Feature","geometry":{"type":"Point","coordinates":[39.170539,45.034689]},"properties":{"name":"Pashkovskiy","city":"Krasnodar","country":"Russia","iata_code":"KRR","links_count":91,"objectID":"2960"}},{"type":"Feature","geometry":{"type":"Point","coordinates":[-22.605556,63.985]},"properties":{"name":"Keflavik International Airport","city":"Keflavik","country":"Iceland","iata_code":"KEF","links_count":91,"objectID":"16"}},{"type":"Feature","geometry":{"type":"Point","coordinates":[10.438611,36.075833]},"properties":{"name":"Enfidha - Zine El Abidine Ben Ali International Airport","city":"Enfidha","country":"Tunisia","iata_code":"NBE","links_count":90,"objectID":"7447"}},{"type":"Feature","geometry":{"type":"Point","coordinates":[130.87266,-12.4083333]},"properties":{"name":"Darwin Intl","city":"Darwin","country":"Australia","iata_code":"DRW","links_count":90,"objectID":"3999"}},{"type":"Feature","geometry":{"type":"Point","coordinates":[44.395881,40.147275]},"properties":{"name":"Zvartnots","city":"Yerevan","country":"Armenia","iata_code":"EVN","links_count":90,"objectID":"3964"}},{"type":"Feature","geometry":{"type":"Point","coordinates":[74.477556,43.061306]},"properties":{"name":"Manas","city":"Bishkek","country":"Kyrgyzstan","iata_code":"FRU","links_count":90,"objectID":"2912"}},{"type":"Feature","geometry":{"type":"Point","coordinates":[-70.015221,12.501389]},"properties":{"name":"Reina Beatrix Intl","city":"Oranjestad","country":"Aruba","iata_code":"AUA","links_count":90,"objectID":"2895"}},{"type":"Feature","geometry":{"type":"Point","coordinates":[24.149678,35.531747]},"properties":{"name":"Souda","city":"Chania","country":"Greece","iata_code":"CHQ","links_count":90,"objectID":"1474"}},{"type":"Feature","geometry":{"type":"Point","coordinates":[27.091667,36.793335]},"properties":{"name":"Kos","city":"Kos","country":"Greece","iata_code":"KGS","links_count":90,"objectID":"1458"}},{"type":"Feature","geometry":{"type":"Point","coordinates":[-77.913358,18.503717]},"properties":{"name":"Sangster Intl","city":"Montego Bay","country":"Jamaica","iata_code":"MBJ","links_count":89,"objectID":"1780"}},{"type":"Feature","geometry":{"type":"Point","coordinates":[-75.669167,45.3225]},"properties":{"name":"Ottawa Macdonald Cartier Intl","city":"Ottawa","country":"Canada","iata_code":"YOW","links_count":89,"objectID":"100"}},{"type":"Feature","geometry":{"type":"Point","coordinates":[118.59,24.7964]},"properties":{"name":"Quanzhou Airport","city":"Quanzhou","country":"China","iata_code":"JJN","links_count":88,"objectID":"6386"}},{"type":"Feature","geometry":{"type":"Point","coordinates":[-80.095589,26.683161]},"properties":{"name":"Palm Beach Intl","city":"West Palm Beach","country":"United States","iata_code":"PBI","links_count":88,"objectID":"3722"}},{"type":"Feature","geometry":{"type":"Point","coordinates":[85.3591,27.696583]},"properties":{"name":"Tribhuvan Intl","city":"Kathmandu","country":"Nepal","iata_code":"KTM","links_count":88,"objectID":"3125"}},{"type":"Feature","geometry":{"type":"Point","coordinates":[-82.409086,22.989153]},"properties":{"name":"Jose Marti Intl","city":"Havana","country":"Cuba","iata_code":"HAV","links_count":87,"objectID":"1909"}},{"type":"Feature","geometry":{"type":"Point","coordinates":[18.601667,-33.964806]},"properties":{"name":"Cape Town Intl","city":"Cape Town","country":"South Africa","iata_code":"CPT","links_count":86,"objectID":"797"}},{"type":"Feature","geometry":{"type":"Point","coordinates":[10.92425,63.457556]},"properties":{"name":"Vaernes","city":"Trondheim","country":"Norway","iata_code":"TRD","links_count":86,"objectID":"665"}},{"type":"Feature","geometry":{"type":"Point","coordinates":[-117.868222,33.675667]},"properties":{"name":"John Wayne Arpt Orange Co","city":"Santa Ana","country":"United States","iata_code":"SNA","links_count":86,"objectID":"3867"}},{"type":"Feature","geometry":{"type":"Point","coordinates":[-51.171428,-29.994428]},"properties":{"name":"Salgado Filho","city":"Porto Alegre","country":"Brazil","iata_code":"POA","links_count":86,"objectID":"2599"}},{"type":"Feature","geometry":{"type":"Point","coordinates":[-49.175775,-25.528475]},"properties":{"name":"Afonso Pena","city":"Curitiba","country":"Brazil","iata_code":"CWB","links_count":86,"objectID":"2545"}},{"type":"Feature","geometry":{"type":"Point","coordinates":[7.649631,45.200761]},"properties":{"name":"Torino","city":"Torino","country":"Italy","iata_code":"TRN","links_count":86,"objectID":"1526"}},{"type":"Feature","geometry":{"type":"Point","coordinates":[9.054283,39.251469]},"properties":{"name":"Elmas","city":"Cagliari","country":"Italy","iata_code":"CAG","links_count":86,"objectID":"1519"}},{"type":"Feature","geometry":{"type":"Point","coordinates":[73.529128,4.191833]},"properties":{"name":"Male Intl","city":"Male","country":"Maldives","iata_code":"MLE","links_count":85,"objectID":"3156"}},{"type":"Feature","geometry":{"type":"Point","coordinates":[16.068778,45.742931]},"properties":{"name":"Zagreb","city":"Zagreb","country":"Croatia","iata_code":"ZAG","links_count":85,"objectID":"1208"}},{"type":"Feature","geometry":{"type":"Point","coordinates":[32.485731,34.718039]},"properties":{"name":"Pafos Intl","city":"Paphos","country":"Cyprus","iata_code":"PFO","links_count":85,"objectID":"1198"}},{"type":"Feature","geometry":{"type":"Point","coordinates":[-156.430458,20.89865]},"properties":{"name":"Kahului","city":"Kahului","country":"United States","iata_code":"OGG","links_count":84,"objectID":"3456"}},{"type":"Feature","geometry":{"type":"Point","coordinates":[100.276864,5.297139]},"properties":{"name":"Penang Intl","city":"Penang","country":"Malaysia","iata_code":"PEN","links_count":84,"objectID":"3308"}},{"type":"Feature","geometry":{"type":"Point","coordinates":[76.920114,8.482122]},"properties":{"name":"Thiruvananthapuram Intl","city":"Trivandrum","country":"India","iata_code":"TRV","links_count":84,"objectID":"3153"}},{"type":"Feature","geometry":{"type":"Point","coordinates":[135.438222,34.785528]},"properties":{"name":"Osaka Intl","city":"Osaka","country":"Japan","iata_code":"ITM","links_count":84,"objectID":"2334"}},{"type":"Feature","geometry":{"type":"Point","coordinates":[-106.6091944,35.0402222]},"properties":{"name":"Albuquerque International Sunport","city":"Albuquerque","country":"United States","iata_code":"ABQ","links_count":83,"objectID":"4019"}},{"type":"Feature","geometry":{"type":"Point","coordinates":[-85.7364989,38.1740858]},"properties":{"name":"Louisville International Airport","city":"Louisville","country":"United States","iata_code":"SDF","links_count":83,"objectID":"4014"}},{"type":"Feature","geometry":{"type":"Point","coordinates":[177.443378,-17.755392]},"properties":{"name":"Nadi Intl","city":"Nandi","country":"Fiji","iata_code":"NAN","links_count":83,"objectID":"1960"}},{"type":"Feature","geometry":{"type":"Point","coordinates":[-116.970158,32.541064]},"properties":{"name":"General Abelardo L Rodriguez Intl","city":"Tijuana","country":"Mexico","iata_code":"TIJ","links_count":83,"objectID":"1847"}},{"type":"Feature","geometry":{"type":"Point","coordinates":[57.6836,-20.430235]},"properties":{"name":"Sir Seewoosagur Ramgoolam Intl","city":"Plaisance","country":"Mauritius","iata_code":"MRU","links_count":82,"objectID":"893"}},{"type":"Feature","geometry":{"type":"Point","coordinates":[-2.197778,57.201944]},"properties":{"name":"Dyce","city":"Aberdeen","country":"United Kingdom","iata_code":"ABZ","links_count":82,"objectID":"532"}},{"type":"Feature","geometry":{"type":"Point","coordinates":[104.388975,52.268028]},"properties":{"name":"Irkutsk","city":"Irkutsk","country":"Russia","iata_code":"IKT","links_count":82,"objectID":"2937"}},{"type":"Feature","geometry":{"type":"Point","coordinates":[-97.600733,35.393089]},"properties":{"name":"Will Rogers World","city":"Oklahoma City","country":"United States","iata_code":"OKC","links_count":81,"objectID":"3863"}},{"type":"Feature","geometry":{"type":"Point","coordinates":[29.696408,30.917669]},"properties":{"name":"Borg El Arab Intl","city":"Alexandria","country":"Egypt","iata_code":"HBE","links_count":81,"objectID":"3410"}},{"type":"Feature","geometry":{"type":"Point","coordinates":[103.81284,13.410666]},"properties":{"name":"Siem Reap","city":"Siem-reap","country":"Cambodia","iata_code":"REP","links_count":81,"objectID":"3035"}},{"type":"Feature","geometry":{"type":"Point","coordinates":[-97.239886,49.910036]},"properties":{"name":"Winnipeg Intl","city":"Winnipeg","country":"Canada","iata_code":"YWG","links_count":81,"objectID":"160"}},{"type":"Feature","geometry":{"type":"Point","coordinates":[32.553161,15.589497]},"properties":{"name":"Khartoum","city":"Khartoum","country":"Sudan","iata_code":"KRT","links_count":81,"objectID":"1175"}},{"type":"Feature","geometry":{"type":"Point","coordinates":[2.384353,6.357228]},"properties":{"name":"Cadjehoun","city":"Cotonou","country":"Benin","iata_code":"COO","links_count":80,"objectID":"245"}},{"type":"Feature","geometry":{"type":"Point","coordinates":[121.5525,25.069722]},"properties":{"name":"Sungshan","city":"Taipei","country":"Taiwan","iata_code":"TSA","links_count":80,"objectID":"2275"}},{"type":"Feature","geometry":{"type":"Point","coordinates":[3.089444,50.561942]},"properties":{"name":"Lesquin","city":"Lille","country":"France","iata_code":"LIL","links_count":80,"objectID":"1399"}},{"type":"Feature","geometry":{"type":"Point","coordinates":[12.241633,51.432447]},"properties":{"name":"Leipzig Halle","city":"Leipzig","country":"Germany","iata_code":"LEJ","links_count":79,"objectID":"348"}},{"type":"Feature","geometry":{"type":"Point","coordinates":[33.799436,27.178317]},"properties":{"name":"Hurghada Intl","city":"Hurghada","country":"Egypt","iata_code":"HRG","links_count":79,"objectID":"1130"}},{"type":"Feature","geometry":{"type":"Point","coordinates":[-78.488214,-0.141144]},"properties":{"name":"Mariscal Sucre Intl","city":"Quito","country":"Ecuador","iata_code":"UIO","links_count":78,"objectID":"2688"}},{"type":"Feature","geometry":{"type":"Point","coordinates":[126.790586,37.558311]},"properties":{"name":"Gimpo","city":"Seoul","country":"South Korea","iata_code":"GMP","links_count":78,"objectID":"2378"}},{"type":"Feature","geometry":{"type":"Point","coordinates":[52.589786,29.539242]},"properties":{"name":"Shiraz Shahid Dastghaib Intl","city":"Shiraz","country":"Iran","iata_code":"SYZ","links_count":78,"objectID":"2157"}},{"type":"Feature","geometry":{"type":"Point","coordinates":[8.802917,41.923637]},"properties":{"name":"Campo Dell Oro","city":"Ajaccio","country":"France","iata_code":"AJA","links_count":78,"objectID":"1324"}},{"type":"Feature","geometry":{"type":"Point","coordinates":[30.13945,-1.968628]},"properties":{"name":"Kigali Intl","city":"Kigali","country":"Rwanda","iata_code":"KGL","links_count":78,"objectID":"1165"}},{"type":"Feature","geometry":{"type":"Point","coordinates":[-149.611389,-17.556667]},"properties":{"name":"Faa\\\\'a International","city":"Papeete","country":"French Polynesia","iata_code":"PPT","links_count":77,"objectID":"4075"}},{"type":"Feature","geometry":{"type":"Point","coordinates":[34.394722,27.977222]},"properties":{"name":"Sharm El Sheikh Intl","city":"Sharm El Sheikh","country":"Egypt","iata_code":"SSH","links_count":77,"objectID":"4057"}},{"type":"Feature","geometry":{"type":"Point","coordinates":[-90.527475,14.583272]},"properties":{"name":"La Aurora","city":"Guatemala City","country":"Guatemala","iata_code":"GUA","links_count":77,"objectID":"1767"}},{"type":"Feature","geometry":{"type":"Point","coordinates":[10.888533,45.395706]},"properties":{"name":"Villafranca","city":"Villafranca","country":"Italy","iata_code":"VRN","links_count":77,"objectID":"1550"}},{"type":"Feature","geometry":{"type":"Point","coordinates":[-2.195508,49.207947]},"properties":{"name":"Jersey","city":"Jersey","country":"Jersey","iata_code":"JER","links_count":76,"objectID":"499"}},{"type":"Feature","geometry":{"type":"Point","coordinates":[6.141944,51.602222]},"properties":{"name":"Niederrhein","city":"Weeze","country":"Germany","iata_code":"NRN","links_count":76,"objectID":"4198"}},{"type":"Feature","geometry":{"type":"Point","coordinates":[24.832844,59.413317]},"properties":{"name":"Tallinn","city":"Tallinn-ulemiste International","country":"Estonia","iata_code":"TLL","links_count":76,"objectID":"415"}},{"type":"Feature","geometry":{"type":"Point","coordinates":[-77.319667,37.505167]},"properties":{"name":"Richmond Intl","city":"Richmond","country":"United States","iata_code":"RIC","links_count":76,"objectID":"3608"}},{"type":"Feature","geometry":{"type":"Point","coordinates":[129.770672,62.09325]},"properties":{"name":"Yakutsk","city":"Yakutsk","country":"Russia","iata_code":"YKS","links_count":76,"objectID":"2923"}},{"type":"Feature","geometry":{"type":"Point","coordinates":[12.194422,45.6484]},"properties":{"name":"Treviso","city":"Treviso","country":"Italy","iata_code":"TSF","links_count":76,"objectID":"1539"}},{"type":"Feature","geometry":{"type":"Point","coordinates":[44.219739,15.476258]},"properties":{"name":"Sanaa Intl","city":"Sanaa","country":"Yemen","iata_code":"SAH","links_count":75,"objectID":"3980"}},{"type":"Feature","geometry":{"type":"Point","coordinates":[-96.851778,32.847111]},"properties":{"name":"Dallas Love Fld","city":"Dallas","country":"United States","iata_code":"DAL","links_count":75,"objectID":"3502"}},{"type":"Feature","geometry":{"type":"Point","coordinates":[135.188361,48.528044]},"properties":{"name":"Novy","city":"Khabarovsk","country":"Russia","iata_code":"KHV","links_count":75,"objectID":"2927"}},{"type":"Feature","geometry":{"type":"Point","coordinates":[10.258628,59.186703]},"properties":{"name":"Torp","city":"Sandefjord","country":"Norway","iata_code":"TRF","links_count":74,"objectID":"664"}},{"type":"Feature","geometry":{"type":"Point","coordinates":[10.785389,59.378933]},"properties":{"name":"Moss","city":"Rygge","country":"Norway","iata_code":"RYG","links_count":74,"objectID":"657"}},{"type":"Feature","geometry":{"type":"Point","coordinates":[119.711667,31.941667]},"properties":{"name":"Changzhou","city":"Changzhou","country":"China","iata_code":"CZX","links_count":74,"objectID":"4109"}},{"type":"Feature","geometry":{"type":"Point","coordinates":[-76.201222,36.894611]},"properties":{"name":"Norfolk Intl","city":"Norfolk","country":"United States","iata_code":"ORF","links_count":74,"objectID":"3611"}},{"type":"Feature","geometry":{"type":"Point","coordinates":[10.775461,33.875031]},"properties":{"name":"Zarzis","city":"Djerba","country":"Tunisia","iata_code":"DJE","links_count":73,"objectID":"293"}},{"type":"Feature","geometry":{"type":"Point","coordinates":[116.894478,-1.268272]},"properties":{"name":"Sepinggan","city":"Balikpapan","country":"Indonesia","iata_code":"BPN","links_count":72,"objectID":"3919"}},{"type":"Feature","geometry":{"type":"Point","coordinates":[-34.923039,-8.126794]},"properties":{"name":"Guararapes Gilberto Freyre Intl","city":"Recife","country":"Brazil","iata_code":"REC","links_count":72,"objectID":"2610"}},{"type":"Feature","geometry":{"type":"Point","coordinates":[172.532225,-43.489358]},"properties":{"name":"Christchurch Intl","city":"Christchurch","country":"New Zealand","iata_code":"CHC","links_count":72,"objectID":"2009"}},{"type":"Feature","geometry":{"type":"Point","coordinates":[9.483731,42.552664]},"properties":{"name":"Poretta","city":"Bastia","country":"France","iata_code":"BIA","links_count":72,"objectID":"1321"}},{"type":"Feature","geometry":{"type":"Point","coordinates":[19.720561,41.414742]},"properties":{"name":"Tirana Rinas","city":"Tirana","country":"Albania","iata_code":"TIA","links_count":72,"objectID":"1190"}},{"type":"Feature","geometry":{"type":"Point","coordinates":[116.683,23.4]},"properties":{"name":"Wai Sha Airport","city":"Shantou","country":"China","iata_code":"SWA","links_count":71,"objectID":"4302"}},{"type":"Feature","geometry":{"type":"Point","coordinates":[-78.732167,42.940525]},"properties":{"name":"Buffalo Niagara Intl","city":"Buffalo","country":"United States","iata_code":"BUF","links_count":71,"objectID":"3820"}},{"type":"Feature","geometry":{"type":"Point","coordinates":[-86.75355,33.562942]},"properties":{"name":"Birmingham Intl","city":"Birmingham","country":"United States","iata_code":"BHM","links_count":71,"objectID":"3811"}},{"type":"Feature","geometry":{"type":"Point","coordinates":[-79.883558,-2.157419]},"properties":{"name":"Jose Joaquin De Olmedo Intl","city":"Guayaquil","country":"Ecuador","iata_code":"GYE","links_count":71,"objectID":"2673"}},{"type":"Feature","geometry":{"type":"Point","coordinates":[-38.532556,-3.776283]},"properties":{"name":"Pinto Martins Intl","city":"Fortaleza","country":"Brazil","iata_code":"FOR","links_count":71,"objectID":"2559"}},{"type":"Feature","geometry":{"type":"Point","coordinates":[-6.215833,54.6575]},"properties":{"name":"Belfast Intl","city":"Belfast","country":"United Kingdom","iata_code":"BFS","links_count":70,"objectID":"465"}},{"type":"Feature","geometry":{"type":"Point","coordinates":[72.63465,23.077242]},"properties":{"name":"Ahmedabad","city":"Ahmedabad","country":"India","iata_code":"AMD","links_count":70,"objectID":"2994"}},{"type":"Feature","geometry":{"type":"Point","coordinates":[-61.337242,10.595369]},"properties":{"name":"Piarco","city":"Port-of-spain","country":"Trinidad and Tobago","iata_code":"POS","links_count":70,"objectID":"2902"}},{"type":"Feature","geometry":{"type":"Point","coordinates":[-48.476292,-1.37925]},"properties":{"name":"Val De Cans Intl","city":"Belem","country":"Brazil","iata_code":"BEL","links_count":70,"objectID":"2526"}},{"type":"Feature","geometry":{"type":"Point","coordinates":[144.795983,13.48345]},"properties":{"name":"Guam Intl","city":"Agana","country":"Guam","iata_code":"GUM","links_count":70,"objectID":"2246"}},{"type":"Feature","geometry":{"type":"Point","coordinates":[-8.415144,42.896333]},"properties":{"name":"Santiago","city":"Santiago","country":"Spain","iata_code":"SCQ","links_count":70,"objectID":"1243"}},{"type":"Feature","geometry":{"type":"Point","coordinates":[4.218647,39.862597]},"properties":{"name":"Menorca","city":"Menorca","country":"Spain","iata_code":"MAH","links_count":70,"objectID":"1231"}},{"type":"Feature","geometry":{"type":"Point","coordinates":[44.954722,41.669167]},"properties":{"name":"Tbilisi","city":"Tbilisi","country":"Georgia","iata_code":"TBS","links_count":69,"objectID":"3973"}},{"type":"Feature","geometry":{"type":"Point","coordinates":[-80.040528,32.898647]},"properties":{"name":"Charleston Afb Intl","city":"Charleston","country":"United States","iata_code":"CHS","links_count":69,"objectID":"3806"}},{"type":"Feature","geometry":{"type":"Point","coordinates":[-95.894069,41.303167]},"properties":{"name":"Eppley Afld","city":"Omaha","country":"United States","iata_code":"OMA","links_count":69,"objectID":"3454"}},{"type":"Feature","geometry":{"type":"Point","coordinates":[-61.792667,17.136749]},"properties":{"name":"V C Bird Intl","city":"Antigua","country":"Antigua and Barbuda","iata_code":"ANU","links_count":69,"objectID":"2874"}},{"type":"Feature","geometry":{"type":"Point","coordinates":[13.004333,47.793304]},"properties":{"name":"Salzburg","city":"Salzburg","country":"Austria","iata_code":"SZG","links_count":69,"objectID":"1612"}},{"type":"Feature","geometry":{"type":"Point","coordinates":[7.628233,48.538319]},"properties":{"name":"Entzheim","city":"Strasbourg","country":"France","iata_code":"SXB","links_count":69,"objectID":"1435"}},{"type":"Feature","geometry":{"type":"Point","coordinates":[-8.491111,51.841269]},"properties":{"name":"Cork","city":"Cork","country":"Ireland","iata_code":"ORK","links_count":68,"objectID":"596"}},{"type":"Feature","geometry":{"type":"Point","coordinates":[-78.928333,33.67975]},"properties":{"name":"Myrtle Beach Intl","city":"Myrtle Beach","country":"United States","iata_code":"MYR","links_count":68,"objectID":"3515"}},{"type":"Feature","geometry":{"type":"Point","coordinates":[73.919697,18.582111]},"properties":{"name":"Pune","city":"Pune","country":"India","iata_code":"PNQ","links_count":68,"objectID":"3017"}},{"type":"Feature","geometry":{"type":"Point","coordinates":[-0.621183,35.623858]},"properties":{"name":"Es Senia","city":"Oran","country":"Algeria","iata_code":"ORN","links_count":68,"objectID":"231"}},{"type":"Feature","geometry":{"type":"Point","coordinates":[28.930978,46.927744]},"properties":{"name":"Chisinau Intl","city":"Chisinau","country":"Moldova","iata_code":"KIV","links_count":68,"objectID":"1735"}},{"type":"Feature","geometry":{"type":"Point","coordinates":[28.452628,-15.330817]},"properties":{"name":"Lusaka Intl","city":"Lusaka","country":"Zambia","iata_code":"LUN","links_count":67,"objectID":"907"}},{"type":"Feature","geometry":{"type":"Point","coordinates":[7.612242,51.518314]},"properties":{"name":"Dortmund","city":"Dortmund","country":"Germany","iata_code":"DTM","links_count":67,"objectID":"373"}},{"type":"Feature","geometry":{"type":"Point","coordinates":[32.443503,0.042386]},"properties":{"name":"Entebbe Intl","city":"Entebbe","country":"Uganda","iata_code":"EBB","links_count":67,"objectID":"1187"}},{"type":"Feature","geometry":{"type":"Point","coordinates":[39.202625,-6.878111]},"properties":{"name":"Mwalimu Julius K Nyerere Intl","city":"Dar Es Salaam","country":"Tanzania","iata_code":"DAR","links_count":67,"objectID":"1177"}},{"type":"Feature","geometry":{"type":"Point","coordinates":[16.885836,51.102683]},"properties":{"name":"Strachowice","city":"Wroclaw","country":"Poland","iata_code":"WRO","links_count":66,"objectID":"680"}},{"type":"Feature","geometry":{"type":"Point","coordinates":[69.6947,40.2154]},"properties":{"name":"Khudzhand Airport","city":"Khudzhand","country":"Tajikistan","iata_code":"LBD","links_count":66,"objectID":"6147"}},{"type":"Feature","geometry":{"type":"Point","coordinates":[4.437222,51.956944]},"properties":{"name":"Rotterdam","city":"Rotterdam","country":"Netherlands","iata_code":"RTM","links_count":66,"objectID":"591"}},{"type":"Feature","geometry":{"type":"Point","coordinates":[-1.356803,50.950261]},"properties":{"name":"Southampton","city":"Southampton","country":"United Kingdom","iata_code":"SOU","links_count":66,"objectID":"495"}},{"type":"Feature","geometry":{"type":"Point","coordinates":[108.19937,16.043917]},"properties":{"name":"Danang Intl","city":"Danang","country":"Vietnam","iata_code":"DAD","links_count":66,"objectID":"3196"}},{"type":"Feature","geometry":{"type":"Point","coordinates":[-64.973361,18.337306]},"properties":{"name":"Cyril E King","city":"St. Thomas","country":"Virgin Islands","iata_code":"STT","links_count":66,"objectID":"2883"}},{"type":"Feature","geometry":{"type":"Point","coordinates":[-56.116719,-15.652931]},"properties":{"name":"Marechal Rondon","city":"Cuiaba","country":"Brazil","iata_code":"CGB","links_count":66,"objectID":"2548"}},{"type":"Feature","geometry":{"type":"Point","coordinates":[-1.512417,12.353194]},"properties":{"name":"Ouagadougou","city":"Ouagadougou","country":"Burkina Faso","iata_code":"OUA","links_count":66,"objectID":"246"}},{"type":"Feature","geometry":{"type":"Point","coordinates":[14.457611,46.223686]},"properties":{"name":"Ljubljana","city":"Ljubljana","country":"Slovenia","iata_code":"LJU","links_count":66,"objectID":"1569"}},{"type":"Feature","geometry":{"type":"Point","coordinates":[-16.341536,28.482653]},"properties":{"name":"Tenerife Norte","city":"Tenerife","country":"Spain","iata_code":"TFN","links_count":66,"objectID":"1057"}},{"type":"Feature","geometry":{"type":"Point","coordinates":[-111.655,33.307833]},"properties":{"name":"Phoenix-Mesa Gateway","city":"Mesa","country":"United States","iata_code":"AZA","links_count":64,"objectID":"6505"}},{"type":"Feature","geometry":{"type":"Point","coordinates":[-84.219375,39.902375]},"properties":{"name":"James M Cox Dayton Intl","city":"Dayton","country":"United States","iata_code":"DAY","links_count":64,"objectID":"3627"}},{"type":"Feature","geometry":{"type":"Point","coordinates":[-60.049721,-3.038611]},"properties":{"name":"Eduardo Gomes Intl","city":"Manaus","country":"Brazil","iata_code":"MAO","links_count":64,"objectID":"2551"}},{"type":"Feature","geometry":{"type":"Point","coordinates":[174.805278,-41.327221]},"properties":{"name":"Wellington Intl","city":"Wellington","country":"New Zealand","iata_code":"WLG","links_count":64,"objectID":"2042"}},{"type":"Feature","geometry":{"type":"Point","coordinates":[91.585939,26.106092]},"properties":{"name":"Lokpriya Gopinath Bordoloi International Airport","city":"Guwahati","country":"India","iata_code":"GAU","links_count":63,"objectID":"6173"}},{"type":"Feature","geometry":{"type":"Point","coordinates":[-3.343333,51.396667]},"properties":{"name":"Cardiff","city":"Cardiff","country":"United Kingdom","iata_code":"CWL","links_count":63,"objectID":"488"}},{"type":"Feature","geometry":{"type":"Point","coordinates":[27.667,37.249]},"properties":{"name":"Bodrum - Milas","city":"Bodrum","country":"Turkey","iata_code":"BJV","links_count":63,"objectID":"4315"}},{"type":"Feature","geometry":{"type":"Point","coordinates":[-68.959803,12.188853]},"properties":{"name":"Hato","city":"Willemstad","country":"Netherlands Antilles","iata_code":"CUR","links_count":63,"objectID":"2897"}},{"type":"Feature","geometry":{"type":"Point","coordinates":[16.912189,58.788636]},"properties":{"name":"Skavsta","city":"Stockholm","country":"Sweden","iata_code":"NYO","links_count":62,"objectID":"699"}},{"type":"Feature","geometry":{"type":"Point","coordinates":[-83.994028,35.810972]},"properties":{"name":"Mc Ghee Tyson","city":"Knoxville","country":"United States","iata_code":"TYS","links_count":62,"objectID":"3676"}},{"type":"Feature","geometry":{"type":"Point","coordinates":[-110.941028,32.116083]},"properties":{"name":"Tucson Intl","city":"Tucson","country":"United States","iata_code":"TUS","links_count":62,"objectID":"3636"}},{"type":"Feature","geometry":{"type":"Point","coordinates":[-82.687389,27.910167]},"properties":{"name":"St Petersburg Clearwater Intl","city":"St. Petersburg","country":"United States","iata_code":"PIE","links_count":62,"objectID":"3617"}},{"type":"Feature","geometry":{"type":"Point","coordinates":[140.916944,38.139722]},"properties":{"name":"Sendai","city":"Sendai","country":"Japan","iata_code":"SDJ","links_count":62,"objectID":"2347"}},{"type":"Feature","geometry":{"type":"Point","coordinates":[-72.265886,21.773625]},"properties":{"name":"Providenciales","city":"Providenciales","country":"Turks and Caicos Islands","iata_code":"PLS","links_count":62,"objectID":"1754"}},{"type":"Feature","geometry":{"type":"Point","coordinates":[8.290772,40.632133]},"properties":{"name":"Alghero","city":"Alghero","country":"Italy","iata_code":"AHO","links_count":62,"objectID":"1517"}},{"type":"Feature","geometry":{"type":"Point","coordinates":[75.9553,11.136839]},"properties":{"name":"Calicut","city":"Calicut","country":"India","iata_code":"CCJ","links_count":61,"objectID":"3137"}},{"type":"Feature","geometry":{"type":"Point","coordinates":[104.844139,11.546556]},"properties":{"name":"Phnom Penh Intl","city":"Phnom-penh","country":"Cambodia","iata_code":"PNH","links_count":61,"objectID":"3034"}},{"type":"Feature","geometry":{"type":"Point","coordinates":[-43.163133,-22.910461]},"properties":{"name":"Santos Dumont","city":"Rio De Janeiro","country":"Brazil","iata_code":"SDU","links_count":61,"objectID":"2612"}},{"type":"Feature","geometry":{"type":"Point","coordinates":[90.911944,29.297778]},"properties":{"name":"Lhasa-Gonggar","city":"Lhasa","country":"China","iata_code":"LXA","links_count":60,"objectID":"4097"}},